{"name":"Search 8","symbol":{"color":"dda0dd","size":"Medium","shape":"Circle"},"sites":[{"SiteNotes":null,"SiteID":202,"AgeYoungest":11619,"SiteName":"Anderson Lake","MaxAge":12767,"LongitudeWest":-92.716667,"MinAge":11619,"AgeOldest":12767,"LongitudeEast":-92.716667,"SiteDescription":"Physiography: Nickerson Moraine. Surrounding vegetation: maple-basswood, Juglans cinerea.","LatitudeNorth":46.416667,"LatitudeSouth":46.416667,"Longitude":-92.716667,"Latitude":46.416667,"Datasets":[{"MaxAge":12767,"DatabaseName":"North American Pollen Database","CollUnitHandle":"ANDERSLK","CollUnitName":null,"MinAge":11619,"AgeOldest":null,"AgeYoungest":null,"DatasetType":"pollen","DatasetID":202}]},{"SiteNotes":null,"SiteID":204,"AgeYoungest":10156,"SiteName":"Andree Bog","MaxAge":13213,"LongitudeWest":-93.25,"MinAge":10156,"AgeOldest":13213,"LongitudeEast":-93.25,"SiteDescription":"Shallow irregular peat deposit. Physiography: gently rolling ground moraine. Surrounding vegetation: sedge meadow and shrub-carr.","LatitudeNorth":45.725,"LatitudeSouth":45.725,"Longitude":-93.25,"Latitude":45.725,"Datasets":[{"MaxAge":13213,"DatabaseName":"North American Pollen Database","CollUnitHandle":"ANDREE","CollUnitName":null,"MinAge":10156,"AgeOldest":null,"AgeYoungest":null,"DatasetType":"pollen","DatasetID":204}]},{"SiteNotes":null,"SiteID":237,"AgeYoungest":11417,"SiteName":"Battaglia Bog","MaxAge":19453,"LongitudeWest":-81.328611,"MinAge":11417,"AgeOldest":19453,"LongitudeEast":-81.328611,"SiteDescription":"Small fen in interlobate area. Physiography: Allegheny Plateau. Surrounding vegetation: agriculturally disturbed.","LatitudeNorth":41.143889,"LatitudeSouth":41.143889,"Longitude":-81.328611,"Latitude":41.143889,"Datasets":[{"MaxAge":19453,"DatabaseName":"North American Pollen Database","CollUnitHandle":"BATTAGLI","CollUnitName":"core 1973","MinAge":11417,"AgeOldest":null,"AgeYoungest":null,"DatasetType":"pollen","DatasetID":240}]},{"SiteNotes":null,"SiteID":276,"AgeYoungest":11188,"SiteName":"Blackhoof Site","MaxAge":12810,"LongitudeWest":-92.573333,"MinAge":11188,"AgeOldest":12810,"LongitudeEast":-92.573333,"SiteDescription":"Peat accumulation in glacial drainageway. Physiography: generally flat valley floor.","LatitudeNorth":46.503333,"LatitudeSouth":46.503333,"Longitude":-92.573333,"Latitude":46.503333,"Datasets":[{"MaxAge":12810,"DatabaseName":"North American Pollen Database","CollUnitHandle":"BLKHOOF","CollUnitName":"core A","MinAge":11188,"AgeOldest":null,"AgeYoungest":null,"DatasetType":"pollen","DatasetID":282}]},{"SiteNotes":"The Icehouse Bottom site is now innundated by Tellico Reservoir. This site ceased to exist after 1984.","SiteID":1107,"AgeYoungest":10609,"SiteName":"Icehouse Bottom [40MR23]","MaxAge":10609,"LongitudeWest":-84.191667,"MinAge":10609,"AgeOldest":10609,"LongitudeEast":-84.191667,"SiteDescription":"Backswamp deposits under archeol. site. Physiography: first terrace Little Tennessee River. Surrounding vegetation: agricultural.","LatitudeNorth":35.588333,"LatitudeSouth":35.588333,"Longitude":-84.191667,"Latitude":35.588333,"Datasets":[{"MaxAge":10609,"DatabaseName":"North American Pollen Database","CollUnitHandle":"ICEHOUSE","CollUnitName":"Square 55 L 285","MinAge":10609,"AgeOldest":null,"AgeYoungest":null,"DatasetType":"pollen","DatasetID":1140}]},{"SiteNotes":null,"SiteID":1676,"AgeYoungest":10288,"SiteName":"Medicine Lake","MaxAge":12734,"LongitudeWest":-97.36301,"MinAge":10288,"AgeOldest":12734,"LongitudeEast":-97.33724,"SiteDescription":"Lake in glacial outwash channel. Physiography: Prairie Coteau. Surrounding vegetation: pasture, hayed areas, Populus.","LatitudeNorth":44.99104,"LatitudeSouth":44.97734,"Longitude":-97.350125,"Latitude":44.98419,"Datasets":[{"MaxAge":12734,"DatabaseName":"North American Pollen Database","CollUnitHandle":"MEDICIN2","CollUnitName":"core a and b","MinAge":10288,"AgeOldest":null,"AgeYoungest":null,"DatasetType":"pollen","DatasetID":1732}]},{"SiteNotes":null,"SiteID":1703,"AgeYoungest":10183,"SiteName":"Mirror Pool","MaxAge":10630,"LongitudeWest":-97.241389,"MinAge":10183,"AgeOldest":10630,"LongitudeEast":-97.241389,"SiteDescription":"Section on south bank of Sheyenne River. Physiography: Sheyenne River Delta, level.","LatitudeNorth":46.525833,"LatitudeSouth":46.525833,"Longitude":-97.241389,"Latitude":46.525833,"Datasets":[{"MaxAge":10630,"DatabaseName":"North American Pollen Database","CollUnitHandle":"MIRRORPL","CollUnitName":null,"MinAge":10183,"AgeOldest":null,"AgeYoungest":null,"DatasetType":"pollen","DatasetID":1759}]},{"SiteNotes":null,"SiteID":1725,"AgeYoungest":11871,"SiteName":"Muscotah Marsh","MaxAge":13112,"LongitudeWest":-95.513333,"MinAge":11871,"AgeOldest":13112,"LongitudeEast":-95.513333,"SiteDescription":"Marsh maintained by an artesian spring. Physiography: floodplain edge of the Delaware River.","LatitudeNorth":39.53,"LatitudeSouth":39.53,"Longitude":-95.513333,"Latitude":39.53,"Datasets":[{"MaxAge":13112,"DatabaseName":"North American Pollen Database","CollUnitHandle":"MUSCOTAB","CollUnitName":"Core B","MinAge":11871,"AgeOldest":null,"AgeYoungest":null,"DatasetType":"pollen","DatasetID":3495}]},{"SiteNotes":null,"SiteID":1738,"AgeYoungest":10144,"SiteName":"Neville Marsh","MaxAge":19418,"LongitudeWest":-83.833333,"MinAge":10144,"AgeOldest":19418,"LongitudeEast":-83.833333,"SiteDescription":"Physiography: Till Plains.","LatitudeNorth":40.545833,"LatitudeSouth":40.545833,"Longitude":-83.833333,"Latitude":40.545833,"Datasets":[{"MaxAge":19418,"DatabaseName":"North American Pollen Database","CollUnitHandle":"NEVILLE","CollUnitName":null,"MinAge":10144,"AgeOldest":null,"AgeYoungest":null,"DatasetType":"pollen","DatasetID":1796}]},{"SiteNotes":null,"SiteID":1741,"AgeYoungest":10247,"SiteName":"Nichols Brook Site","MaxAge":14930,"LongitudeWest":-78.478889,"MinAge":10247,"AgeOldest":14930,"LongitudeEast":-78.478889,"SiteDescription":"Stream-bank section along Nichols Brook. Physiography: Chaffee outwash plain.","LatitudeNorth":42.544722,"LatitudeSouth":42.544722,"Longitude":-78.478889,"Latitude":42.544722,"Datasets":[{"MaxAge":14930,"DatabaseName":"North American Pollen Database","CollUnitHandle":"NICHOLS2","CollUnitName":"Section 2","MinAge":10247,"AgeOldest":null,"AgeYoungest":null,"DatasetType":"pollen","DatasetID":3497}]},{"SiteNotes":null,"SiteID":1989,"AgeYoungest":10678,"SiteName":"Rhule Fen","MaxAge":15488,"LongitudeWest":-85.741667,"MinAge":10678,"AgeOldest":15488,"LongitudeEast":-85.741667,"SiteDescription":"Fen. Physiography: till plain. Surrounding vegetation: wetland.","LatitudeNorth":39.953611,"LatitudeSouth":39.953611,"Longitude":-85.741667,"Latitude":39.953611,"Datasets":[{"MaxAge":15488,"DatabaseName":"North American Pollen Database","CollUnitHandle":"RHULEFEN","CollUnitName":null,"MinAge":10678,"AgeOldest":null,"AgeYoungest":null,"DatasetType":"pollen","DatasetID":2063}]},{"SiteNotes":null,"SiteID":2211,"AgeYoungest":13661,"SiteName":"Rosebud","MaxAge":14375,"LongitudeWest":-100.848611,"MinAge":13661,"AgeOldest":14375,"LongitudeEast":-100.848611,"SiteDescription":"Interdunal depression. Physiography: Nebraska Sandhills. Surrounding vegetation: grassland.","LatitudeNorth":43.229167,"LatitudeSouth":43.229167,"Longitude":-100.848611,"Latitude":43.229167,"Datasets":[{"MaxAge":14375,"DatabaseName":"North American Pollen Database","CollUnitHandle":"ROSEBUDA","CollUnitName":"Core A","MinAge":13661,"AgeOldest":null,"AgeYoungest":null,"DatasetType":"pollen","DatasetID":2288},{"MaxAge":14924,"DatabaseName":"North American Pollen Database","CollUnitHandle":"ROSEBUDB","CollUnitName":"Core B","MinAge":14835,"AgeOldest":null,"AgeYoungest":null,"DatasetType":"pollen","DatasetID":3583}]},{"SiteNotes":"Poplar River Formation overlain by ~8m of Sherack Formation.","SiteID":2284,"AgeYoungest":11257,"SiteName":"Seminary Site","MaxAge":11341,"LongitudeWest":-96.758333,"MinAge":11257,"AgeOldest":11341,"LongitudeEast":-96.758333,"SiteDescription":null,"LatitudeNorth":46.925,"LatitudeSouth":46.925,"Longitude":-96.758333,"Latitude":46.925,"Datasets":[{"MaxAge":11341,"DatabaseName":"North American Pollen Database","CollUnitHandle":"SEMINARY","CollUnitName":null,"MinAge":11257,"AgeOldest":null,"AgeYoungest":null,"DatasetType":"pollen","DatasetID":2366}]},{"SiteNotes":"Pollen has also been described from the section.","SiteID":2863,"AgeYoungest":14641,"SiteName":"Winter Gulf Site","MaxAge":15083,"LongitudeWest":-78.933889,"MinAge":14641,"AgeOldest":15083,"LongitudeEast":-78.933889,"SiteDescription":"The section of organic silts, sands and clays is exposed in a stream cut adjacent to U.S. Hwy. 62, 3.8 km south of North Collins.","LatitudeNorth":42.561111,"LatitudeSouth":42.561111,"Longitude":-78.933889,"Latitude":42.561111,"Datasets":[{"MaxAge":15083,"DatabaseName":"North American Pollen Database","CollUnitHandle":"WNTRGULF","CollUnitName":"Section 1","MinAge":14641,"AgeOldest":null,"AgeYoungest":null,"DatasetType":"pollen","DatasetID":2960}]},{"SiteNotes":null,"SiteID":6495,"AgeYoungest":11167,"SiteName":"Roberts Creek AB51","MaxAge":11827,"LongitudeWest":-91.500278,"MinAge":11167,"AgeOldest":11827,"LongitudeEast":-91.500278,"SiteDescription":"Fluvial deposits in floodplain of Roberts Creek. Physiography: Driftless Area - rolling. Surrounding vegetation: Farmland.","LatitudeNorth":42.986111,"LatitudeSouth":42.986111,"Longitude":-91.500278,"Latitude":42.986111,"Datasets":[{"MaxAge":11827,"DatabaseName":"North American Pollen Database","CollUnitHandle":"RCAB51","CollUnitName":null,"MinAge":11167,"AgeOldest":null,"AgeYoungest":null,"DatasetType":"pollen","DatasetID":7852}]},{"SiteNotes":null,"SiteID":6497,"AgeYoungest":12732,"SiteName":"Roberts Creek AB34","MaxAge":12732,"LongitudeWest":-91.500278,"MinAge":12732,"AgeOldest":12732,"LongitudeEast":-91.500278,"SiteDescription":"Fluvial deposits in floodplain of Roberts Creek. Physiography: Driftless Area - rolling. Surrounding vegetation: Farmland.","LatitudeNorth":42.986111,"LatitudeSouth":42.986111,"Longitude":-91.500278,"Latitude":42.986111,"Datasets":[{"MaxAge":12732,"DatabaseName":"North American Pollen Database","CollUnitHandle":"RCAB34","CollUnitName":null,"MinAge":12732,"AgeOldest":null,"AgeYoungest":null,"DatasetType":"pollen","DatasetID":7854}]},{"SiteNotes":null,"SiteID":6498,"AgeYoungest":13248,"SiteName":"Roberts Creek AB22A","MaxAge":13248,"LongitudeWest":-91.500278,"MinAge":13248,"AgeOldest":13248,"LongitudeEast":-91.500278,"SiteDescription":"Fluvial deposits in floodplain of Roberts Creek. Physiography: Driftless Area - rolling. Surrounding vegetation: Farmland.","LatitudeNorth":42.986111,"LatitudeSouth":42.986111,"Longitude":-91.500278,"Latitude":42.986111,"Datasets":[{"MaxAge":13248,"DatabaseName":"North American Pollen Database","CollUnitHandle":"RCAB22A","CollUnitName":null,"MinAge":13248,"AgeOldest":null,"AgeYoungest":null,"DatasetType":"pollen","DatasetID":7855}]},{"SiteNotes":"Baker et al. (1996) includes description of plant fossils found in the Roberts Creek site.\r\nBaker et al. (1993) provides an interpretation of the Euro-American settlement based on pollen plant macroscopic, and insect remains.","SiteID":6499,"AgeYoungest":14706,"SiteName":"Roberts Creek CCLG-1A","MaxAge":14706,"LongitudeWest":-91.500278,"MinAge":14706,"AgeOldest":14706,"LongitudeEast":-91.500278,"SiteDescription":"Fluvial deposits in floodplain of Roberts Creek. Physiography: Driftless Area - rolling. Surrounding vegetation: Farmland.","LatitudeNorth":42.986111,"LatitudeSouth":42.986111,"Longitude":-91.500278,"Latitude":42.986111,"Datasets":[{"MaxAge":14706,"DatabaseName":"North American Pollen Database","CollUnitHandle":"RCCCLG1A","CollUnitName":null,"MinAge":14706,"AgeOldest":null,"AgeYoungest":null,"DatasetType":"pollen","DatasetID":7856}]},{"SiteNotes":"Site is located in James 'Pate' Philip State Park.","SiteID":9588,"AgeYoungest":10504,"SiteName":"Brewster Creek","MaxAge":16443,"LongitudeWest":-88.24843,"MinAge":10504,"AgeOldest":16443,"LongitudeEast":-88.24039,"SiteDescription":"Site was a fen, which had been drained, tiled, and cropped since the at least the early 20th century. Since 2003, drain tiles have been removed and fen restoration is in progress.","LatitudeNorth":41.98219,"LatitudeSouth":41.97869,"Longitude":-88.24441,"Latitude":41.98044,"Datasets":[{"MaxAge":16443,"DatabaseName":"North American Pollen Database","CollUnitHandle":"BREWCRK1","CollUnitName":"BC-1","MinAge":10504,"AgeOldest":16665,"AgeYoungest":10383,"DatasetType":"pollen","DatasetID":14104}]},{"SiteNotes":"Public Land Survey coordinates of the site are NE 1/4, NW 1/4, SW 1/4, Sec. 2, T. 114  N, R. 26 W.","SiteID":9860,"AgeYoungest":12483,"SiteName":"Norwood","MaxAge":15388,"LongitudeWest":-93.926793,"MinAge":12483,"AgeOldest":15388,"LongitudeEast":-93.926793,"SiteDescription":"The site is located on the North bank of a drainage ditch leading to Bevens Creek 6.6 km south of Norwood, Minnesota","LatitudeNorth":44.709298,"LatitudeSouth":44.709298,"Longitude":-93.926793,"Latitude":44.709298,"Datasets":[{"MaxAge":15388,"DatabaseName":"North American Pollen Database","CollUnitHandle":"NORPOL","CollUnitName":null,"MinAge":12483,"AgeOldest":15928,"AgeYoungest":11612,"DatasetType":"pollen","DatasetID":19316}]},{"SiteNotes":null,"SiteID":10172,"AgeYoungest":10295,"SiteName":"Black Gum Swamp","MaxAge":14325,"LongitudeWest":-72.1862,"MinAge":10295,"AgeOldest":14325,"LongitudeEast":-72.1796,"SiteDescription":"Swamp that occupies an irregularly shaped basin that drains to the southwest through an intermittent stream. Surrounding vegetation: Picea rubens, Nyssa sylvatica, and Acer rubrum in the overstory. Ilex, Nemopanthus, Vaccinium, and Viburnum in the understory. Ground layer of Sphagnum, Osmunda, and herbs.","LatitudeNorth":42.539,"LatitudeSouth":42.536,"Longitude":-72.1829,"Latitude":42.5375,"Datasets":[{"MaxAge":14325,"DatabaseName":"North American Pollen Database","CollUnitHandle":"BLACKGMS","CollUnitName":null,"MinAge":10295,"AgeOldest":14669,"AgeYoungest":9267,"DatasetType":"pollen","DatasetID":15327}]},{"SiteNotes":null,"SiteID":10512,"AgeYoungest":13774,"SiteName":"No Name East midden","MaxAge":13774,"LongitudeWest":-116.566666666667,"MinAge":13774,"AgeOldest":13774,"LongitudeEast":-116.566666666667,"SiteDescription":"The vast majority of the southern Mojave supports Larrea tridentata and Ambrosia dumosa (bursage) desert scrub. At the lowest elevations (50–425 m), vegetation is typically sparse. These elevations include Atriplex hymenelytra (desert holly), Ambrosia dumosa, and Larrea, with associates that include Encelia farinosa (brittle bush), Peucephyllum schottii (desert spruce) and Hymenoclea salsola\r\n(cheeseweed). At ca. 200–1300 m elevations, Larrea dominates with A. dumosa, Ephedra spp. (Mormon tea), Encelia, Lycium spp. (wolfberry), Ericameria cooperi (golden bush), Krameria parviflora (ratany) and Salazaria mexicana (bladdersage) as secondary\r\ncomponents. More mesophytic upland desert shrubs such as Prunus fasciculata (desert almond), Coleogyne ramosissima (blackbrush), Thamnosma montana (desert rue) and Yucca brevifolia (Joshua tree) are also found ca. 1300–1700 m, occasionally at lower\r\nelevations. The nearby Avawatz Mountains (maximum elevation of 1877 m) support sparse stands of Juniperus osteosperma (Utah juniper). Widespread perennial and annual herbaceous plants include Eriogonum inflatum (desert trumpet),Machaerathera tortifolia (Mojave aster), Eschscholzia minutiflora and E. californica (poppy), Cryptantha spp. (borage), Malvastrum rotundifolium (five-spot mallow), and occasional Hesperocallis undulata (desert\r\nlily). Vegetation growing at the infrequent springs and along perennial watercourses includes Prosopis juliflora (mesquite) and Chilopsis linearis (arroyo willow). An Atriplex (saltbush) community occurs on alkali environments of playas and riverine deposits.\r\nThe introduced Bromus rubens (cheatgrass) and Erodium spp. (heron’s bill) are widespread in the study area","LatitudeNorth":35.4333333333333,"LatitudeSouth":35.4333333333333,"Longitude":-116.566667,"Latitude":35.433333,"Datasets":[{"MaxAge":13774,"DatabaseName":"North American Pollen Database","CollUnitHandle":"NNE4C","CollUnitName":"4C","MinAge":13774,"AgeOldest":null,"AgeYoungest":null,"DatasetType":"pollen","DatasetID":16163}]},{"SiteNotes":null,"SiteID":10513,"AgeYoungest":15082,"SiteName":"No Name West midden","MaxAge":15082,"LongitudeWest":-116.566666666667,"MinAge":15082,"AgeOldest":15082,"LongitudeEast":-116.566666666667,"SiteDescription":"The vast majority of the southern Mojave supports Larrea tridentata and Ambrosia dumosa (bursage) desert scrub. At the lowest elevations (50–425 m), vegetation is typically sparse. These elevations include Atriplex hymenelytra (desert holly), Ambrosia dumosa, and Larrea, with associates that include Encelia farinosa (brittle bush), Peucephyllum schottii (desert spruce) and Hymenoclea salsola\r\n(cheeseweed). At ca. 200–1300 m elevations, Larrea dominates with A. dumosa, Ephedra spp. (Mormon tea), Encelia, Lycium spp. (wolfberry), Ericameria cooperi (golden bush), Krameria parviflora (ratany) and Salazaria mexicana (bladdersage) as secondary\r\ncomponents. More mesophytic upland desert shrubs such as Prunus fasciculata (desert almond), Coleogyne ramosissima (blackbrush), Thamnosma montana (desert rue) and Yucca brevifolia (Joshua tree) are also found ca. 1300–1700 m, occasionally at lower\r\nelevations. The nearby Avawatz Mountains (maximum elevation of 1877 m) support sparse stands of Juniperus osteosperma (Utah juniper). Widespread perennial and annual herbaceous plants include Eriogonum inflatum (desert trumpet),Machaerathera tortifolia (Mojave aster), Eschscholzia minutiflora and E. californica (poppy), Cryptantha spp. (borage), Malvastrum rotundifolium (five-spot mallow), and occasional Hesperocallis undulata (desert\r\nlily). Vegetation growing at the infrequent springs and along perennial watercourses includes Prosopis juliflora (mesquite) and Chilopsis linearis (arroyo willow). An Atriplex (saltbush) community occurs on alkali environments of playas and riverine deposits.\r\nThe introduced Bromus rubens (cheatgrass) and Erodium spp. (heron’s bill) are widespread in the study area","LatitudeNorth":35.4333333333333,"LatitudeSouth":35.4333333333333,"Longitude":-116.566667,"Latitude":35.433333,"Datasets":[{"MaxAge":15082,"DatabaseName":"North American Pollen Database","CollUnitHandle":"NNW2A","CollUnitName":"2A","MinAge":15082,"AgeOldest":null,"AgeYoungest":null,"DatasetType":"pollen","DatasetID":16167},{"MaxAge":11303,"DatabaseName":"North American Pollen Database","CollUnitHandle":"NNW3D","CollUnitName":"3D","MinAge":11303,"AgeOldest":null,"AgeYoungest":null,"DatasetType":"pollen","DatasetID":16171}]},{"SiteNotes":null,"SiteID":13287,"AgeYoungest":10542,"SiteName":"Madelia","MaxAge":16496,"LongitudeWest":-94.4166666666667,"MinAge":10542,"AgeOldest":16496,"LongitudeEast":-94.4166666666667,"SiteDescription":"Drained wetland in a small depression in ground moraine.","LatitudeNorth":44.0833333333333,"LatitudeSouth":44.0833333333333,"Longitude":-94.416667,"Latitude":44.083333,"Datasets":[{"MaxAge":16496,"DatabaseName":"North American Pollen Database","CollUnitHandle":"MADELIA","CollUnitName":null,"MinAge":10542,"AgeOldest":17908,"AgeYoungest":9530,"DatasetType":"pollen","DatasetID":19812}]}],"numDatasets":26,"numSites":24,"id":7,"order":1}