{"name":"Search 6","symbol":{"color":"008b8b","size":"Medium","shape":"Circle"},"sites":[{"SiteNotes":null,"SiteID":30,"AgeYoungest":9392,"SiteName":"Almora Lake","MaxAge":10638,"LongitudeWest":-95.293611,"MinAge":9392,"AgeOldest":10638,"LongitudeEast":-95.293611,"SiteDescription":"Lake with emergent reed vegetation. Physiography: Parkers Prairie sandplain. Surrounding vegetation: agriculture.","LatitudeNorth":46.206111,"LatitudeSouth":46.206111,"Longitude":-95.293611,"Latitude":46.206111,"Datasets":[{"MaxAge":10638,"DatabaseName":"North American Pollen Database","CollUnitHandle":"ALMORA1","CollUnitName":"core 1","MinAge":9392,"AgeOldest":null,"AgeYoungest":null,"DatasetType":"pollen","DatasetID":30}]},{"SiteNotes":null,"SiteID":202,"AgeYoungest":11619,"SiteName":"Anderson Lake","MaxAge":11947,"LongitudeWest":-92.716667,"MinAge":11619,"AgeOldest":11947,"LongitudeEast":-92.716667,"SiteDescription":"Physiography: Nickerson Moraine. Surrounding vegetation: maple-basswood, Juglans cinerea.","LatitudeNorth":46.416667,"LatitudeSouth":46.416667,"Longitude":-92.716667,"Latitude":46.416667,"Datasets":[{"MaxAge":11947,"DatabaseName":"North American Pollen Database","CollUnitHandle":"ANDERSLK","CollUnitName":null,"MinAge":11619,"AgeOldest":null,"AgeYoungest":null,"DatasetType":"pollen","DatasetID":202}]},{"SiteNotes":null,"SiteID":204,"AgeYoungest":10369,"SiteName":"Andree Bog","MaxAge":11329,"LongitudeWest":-93.25,"MinAge":10369,"AgeOldest":11329,"LongitudeEast":-93.25,"SiteDescription":"Shallow irregular peat deposit. Physiography: gently rolling ground moraine. Surrounding vegetation: sedge meadow and shrub-carr.","LatitudeNorth":45.725,"LatitudeSouth":45.725,"Longitude":-93.25,"Latitude":45.725,"Datasets":[{"MaxAge":11329,"DatabaseName":"North American Pollen Database","CollUnitHandle":"ANDREE","CollUnitName":null,"MinAge":10369,"AgeOldest":null,"AgeYoungest":null,"DatasetType":"pollen","DatasetID":204}]},{"SiteNotes":"Minnesota DNR Lake ID: 03008500.","SiteID":221,"AgeYoungest":42,"SiteName":"Bad Medicine Lake","MaxAge":282,"LongitudeWest":-95.42175,"MinAge":42,"AgeOldest":282,"LongitudeEast":-95.37266,"SiteDescription":"Kettle lake. Physiography: Itaska Moraine, rolling. Surrounding vegetation: Pinus banksiana, Populus, Betula.","LatitudeNorth":47.14677,"LatitudeSouth":47.1011,"Longitude":-95.397205,"Latitude":47.123935,"Datasets":[{"MaxAge":282,"DatabaseName":"North American Pollen Database","CollUnitHandle":"BADMED","CollUnitName":null,"MinAge":42,"AgeOldest":null,"AgeYoungest":null,"DatasetType":"pollen","DatasetID":223}]},{"SiteNotes":null,"SiteID":226,"AgeYoungest":0,"SiteName":"Balsam Meadow","MaxAge":11209,"LongitudeWest":-119.260278,"MinAge":0,"AgeOldest":11209,"LongitudeEast":-119.260278,"SiteDescription":"Small sedge meadow. Physiography: Sierra Nevada Mountain Range. Surrounding vegetation: Pinus jeffreyi, Pinus contorta, Abies.","LatitudeNorth":37.195833,"LatitudeSouth":37.195833,"Longitude":-119.260278,"Latitude":37.195833,"Datasets":[{"MaxAge":11209,"DatabaseName":"North American Pollen Database","CollUnitHandle":"BALSAMMD","CollUnitName":"core C","MinAge":0,"AgeOldest":null,"AgeYoungest":null,"DatasetType":"pollen","DatasetID":228}]},{"SiteNotes":null,"SiteID":231,"AgeYoungest":0,"SiteName":"Barrett Lake","MaxAge":15343,"LongitudeWest":-119.008333,"MinAge":0,"AgeOldest":15343,"LongitudeEast":-119.008333,"SiteDescription":"Glacial scour lake. Physiography: Sierra Nevada mountains. Surrounding vegetation: lodgepole/limber pine, mountain hemlock.","LatitudeNorth":37.595833,"LatitudeSouth":37.595833,"Longitude":-119.008333,"Latitude":37.595833,"Datasets":[{"MaxAge":15343,"DatabaseName":"North American Pollen Database","CollUnitHandle":"BARRETT","CollUnitName":null,"MinAge":0,"AgeOldest":null,"AgeYoungest":null,"DatasetType":"pollen","DatasetID":234}]},{"SiteNotes":null,"SiteID":243,"AgeYoungest":612,"SiteName":"Beaver Lake","MaxAge":10269,"LongitudeWest":-107.259722,"MinAge":612,"AgeOldest":10269,"LongitudeEast":-107.259722,"SiteDescription":"Moraine dammed lake. Physiography: Big Horn Mountains. Surrounding vegetation: lodgepole pine forest.","LatitudeNorth":44.178611,"LatitudeSouth":44.178611,"Longitude":-107.259722,"Latitude":44.178611,"Datasets":[{"MaxAge":10269,"DatabaseName":"North American Pollen Database","CollUnitHandle":"BEAVER2","CollUnitName":"Core 2","MinAge":612,"AgeOldest":null,"AgeYoungest":null,"DatasetType":"pollen","DatasetID":246}]},{"SiteNotes":null,"SiteID":244,"AgeYoungest":19211,"SiteName":"Bechan Cave","MaxAge":19620,"LongitudeWest":-110.866666666667,"MinAge":19211,"AgeOldest":19620,"LongitudeEast":-110.866666666667,"SiteDescription":"Large sandstone cave. Physiography: canyon lands. Surrounding vegetation: open juniper woodland.","LatitudeNorth":37.3666666666667,"LatitudeSouth":37.3666666666667,"Longitude":-110.866667,"Latitude":37.366667,"Datasets":[{"MaxAge":19620,"DatabaseName":"North American Pollen Database","CollUnitHandle":"BECHAN1","CollUnitName":"Test Pit 1","MinAge":19211,"AgeOldest":null,"AgeYoungest":null,"DatasetType":"pollen","DatasetID":247},{"MaxAge":16333,"DatabaseName":"North American Pollen Database","CollUnitHandle":"BECHAN2M","CollUnitName":"2-m square pit","MinAge":1086,"AgeOldest":null,"AgeYoungest":null,"DatasetType":"pollen","DatasetID":3060}]},{"SiteNotes":null,"SiteID":246,"AgeYoungest":726,"SiteName":"Beef Pasture","MaxAge":6131,"LongitudeWest":-108.15,"MinAge":726,"AgeOldest":6131,"LongitudeEast":-108.15,"SiteDescription":"Open meadow. Physiography: La Plata Mountains. Surrounding vegetation: Picea/Abies/Populus/Alnus.","LatitudeNorth":37.416667,"LatitudeSouth":37.416667,"Longitude":-108.15,"Latitude":37.416667,"Datasets":[{"MaxAge":6131,"DatabaseName":"North American Pollen Database","CollUnitHandle":"BEEFPAST","CollUnitName":null,"MinAge":726,"AgeOldest":null,"AgeYoungest":null,"DatasetType":"pollen","DatasetID":250}]},{"SiteNotes":null,"SiteID":254,"AgeYoungest":9563,"SiteName":"Berry Pond","MaxAge":15144,"LongitudeWest":-73.316667,"MinAge":9563,"AgeOldest":15144,"LongitudeEast":-73.316667,"SiteDescription":null,"LatitudeNorth":42.5,"LatitudeSouth":42.5,"Longitude":-73.316667,"Latitude":42.5,"Datasets":[{"MaxAge":15144,"DatabaseName":"North American Pollen Database","CollUnitHandle":"BERRYPND","CollUnitName":"core A","MinAge":9563,"AgeOldest":null,"AgeYoungest":null,"DatasetType":"pollen","DatasetID":260}]},{"SiteNotes":null,"SiteID":268,"AgeYoungest":9509,"SiteName":"Big Pond","MaxAge":10148,"LongitudeWest":-78.55,"MinAge":9509,"AgeOldest":10148,"LongitudeEast":-78.55,"SiteDescription":null,"LatitudeNorth":39.766667,"LatitudeSouth":39.766667,"Longitude":-78.55,"Latitude":39.766667,"Datasets":[{"MaxAge":10148,"DatabaseName":"North American Pollen Database","CollUnitHandle":"BIGPOND","CollUnitName":null,"MinAge":9509,"AgeOldest":null,"AgeYoungest":null,"DatasetType":"pollen","DatasetID":274}]},{"SiteNotes":null,"SiteID":276,"AgeYoungest":11188,"SiteName":"Blackhoof Site","MaxAge":11545,"LongitudeWest":-92.573333,"MinAge":11188,"AgeOldest":11545,"LongitudeEast":-92.573333,"SiteDescription":"Peat accumulation in glacial drainageway. Physiography: generally flat valley floor.","LatitudeNorth":46.503333,"LatitudeSouth":46.503333,"Longitude":-92.573333,"Latitude":46.503333,"Datasets":[{"MaxAge":11545,"DatabaseName":"North American Pollen Database","CollUnitHandle":"BLKHOOF","CollUnitName":"core A","MinAge":11188,"AgeOldest":null,"AgeYoungest":null,"DatasetType":"pollen","DatasetID":282}]},{"SiteNotes":null,"SiteID":281,"AgeYoungest":2321,"SiteName":"Blue Mounds Creek","MaxAge":8602,"LongitudeWest":-89.866667,"MinAge":2321,"AgeOldest":8602,"LongitudeEast":-89.866667,"SiteDescription":null,"LatitudeNorth":43.083333,"LatitudeSouth":43.083333,"Longitude":-89.866667,"Latitude":43.083333,"Datasets":[{"MaxAge":8602,"DatabaseName":"North American Pollen Database","CollUnitHandle":"BLUMOUND","CollUnitName":null,"MinAge":2321,"AgeOldest":null,"AgeYoungest":null,"DatasetType":"pollen","DatasetID":287}]},{"SiteNotes":null,"SiteID":289,"AgeYoungest":15490,"SiteName":"Bob Black Pond","MaxAge":19767,"LongitudeWest":-84.868056,"MinAge":15490,"AgeOldest":19767,"LongitudeEast":-84.868056,"SiteDescription":"Sinkhole pond. Physiography: Ridge and valley province of Appal. Mtn.. Surrounding vegetation: Acer rubrum/Lyonia lucida/Nyssa biflora.","LatitudeNorth":34.323611,"LatitudeSouth":34.323611,"Longitude":-84.868056,"Latitude":34.323611,"Datasets":[{"MaxAge":19767,"DatabaseName":"North American Pollen Database","CollUnitHandle":"BOBBLACK","CollUnitName":null,"MinAge":15490,"AgeOldest":null,"AgeYoungest":null,"DatasetType":"pollen","DatasetID":295}]},{"SiteNotes":null,"SiteID":312,"AgeYoungest":0,"SiteName":"Buck Lake","MaxAge":8091,"LongitudeWest":-81.332222,"MinAge":0,"AgeOldest":8091,"LongitudeEast":-81.332222,"SiteDescription":"Sinkhole lake. Physiography: Lake Wales Ridge, gently rolling. Surrounding vegetation: orange orchards.","LatitudeNorth":27.234444,"LatitudeSouth":27.234444,"Longitude":-81.332222,"Latitude":27.234444,"Datasets":[{"MaxAge":8091,"DatabaseName":"North American Pollen Database","CollUnitHandle":"BUCKLAKE","CollUnitName":null,"MinAge":0,"AgeOldest":null,"AgeYoungest":null,"DatasetType":"pollen","DatasetID":319}]},{"SiteNotes":null,"SiteID":325,"AgeYoungest":243,"SiteName":"Camp 11 Lake","MaxAge":12174,"LongitudeWest":-88.016667,"MinAge":243,"AgeOldest":12174,"LongitudeEast":-88.016667,"SiteDescription":null,"LatitudeNorth":46.666667,"LatitudeSouth":46.666667,"Longitude":-88.016667,"Latitude":46.666667,"Datasets":[{"MaxAge":12174,"DatabaseName":"North American Pollen Database","CollUnitHandle":"CAMP11LK","CollUnitName":null,"MinAge":243,"AgeOldest":null,"AgeYoungest":null,"DatasetType":"pollen","DatasetID":332}]},{"SiteNotes":"Site also referred to as Engineer Mountain Bog by Maher.","SiteID":339,"AgeYoungest":0,"SiteName":"Cascade Fen","MaxAge":6335,"LongitudeWest":-107.8,"MinAge":0,"AgeOldest":6335,"LongitudeEast":-107.8,"SiteDescription":"Bog. Physiography: San Juan Mountains. Surrounding vegetation: Aspen with mixed conifers.","LatitudeNorth":37.483333,"LatitudeSouth":37.483333,"Longitude":-107.8,"Latitude":37.483333,"Datasets":[{"MaxAge":6335,"DatabaseName":"North American Pollen Database","CollUnitHandle":"CASCADE","CollUnitName":"core 63-2","MinAge":0,"AgeOldest":null,"AgeYoungest":null,"DatasetType":"pollen","DatasetID":347}]},{"SiteNotes":null,"SiteID":360,"AgeYoungest":882,"SiteName":"Chippewa Bog","MaxAge":10700,"LongitudeWest":-83.241111,"MinAge":882,"AgeOldest":10700,"LongitudeEast":-83.241111,"SiteDescription":null,"LatitudeNorth":43.123889,"LatitudeSouth":43.123889,"Longitude":-83.241111,"Latitude":43.123889,"Datasets":[{"MaxAge":10700,"DatabaseName":"North American Pollen Database","CollUnitHandle":"CHIPPEWA","CollUnitName":null,"MinAge":882,"AgeOldest":null,"AgeYoungest":null,"DatasetType":"pollen","DatasetID":369}]},{"SiteNotes":null,"SiteID":371,"AgeYoungest":42,"SiteName":"Cindy Pond","MaxAge":525,"LongitudeWest":-94.94136,"MinAge":42,"AgeOldest":525,"LongitudeEast":-94.93657,"SiteDescription":"Kettle lake. Physiography: Lake George Outwash Plain. Surrounding vegetation: Populus, Betula, Quercus forest.","LatitudeNorth":47.17362,"LatitudeSouth":47.17099,"Longitude":-94.938965,"Latitude":47.172305,"Datasets":[{"MaxAge":525,"DatabaseName":"North American Pollen Database","CollUnitHandle":"CINDY","CollUnitName":null,"MinAge":42,"AgeOldest":null,"AgeYoungest":null,"DatasetType":"pollen","DatasetID":382}]},{"SiteNotes":null,"SiteID":479,"AgeYoungest":11315,"SiteName":"Clear Lake","MaxAge":11933,"LongitudeWest":-86.54758,"MinAge":11315,"AgeOldest":11933,"LongitudeEast":-86.54161,"SiteDescription":null,"LatitudeNorth":41.64151,"LatitudeSouth":41.63556,"Longitude":-86.544595,"Latitude":41.638535,"Datasets":[{"MaxAge":11933,"DatabaseName":"North American Pollen Database","CollUnitHandle":"CLEARLK","CollUnitName":null,"MinAge":11315,"AgeOldest":null,"AgeYoungest":null,"DatasetType":"pollen","DatasetID":490}]},{"SiteNotes":null,"SiteID":486,"AgeYoungest":214,"SiteName":"Columbine Ranch Fen","MaxAge":7446,"LongitudeWest":-107.808333,"MinAge":214,"AgeOldest":7446,"LongitudeEast":-107.808333,"SiteDescription":"Fen. Physiography: San Juan Mountains. Surrounding vegetation: Aspen with mixed conifers.","LatitudeNorth":37.6125,"LatitudeSouth":37.6125,"Longitude":-107.808333,"Latitude":37.6125,"Datasets":[{"MaxAge":7446,"DatabaseName":"North American Pollen Database","CollUnitHandle":"COLUMBIN","CollUnitName":null,"MinAge":214,"AgeOldest":null,"AgeYoungest":null,"DatasetType":"pollen","DatasetID":498}]},{"SiteNotes":null,"SiteID":494,"AgeYoungest":176,"SiteName":"Copley Lake","MaxAge":10873,"LongitudeWest":-107.0825,"MinAge":176,"AgeOldest":10873,"LongitudeEast":-107.0825,"SiteDescription":"Montane glacial lake (water 1 m deep). Physiography: flat knoll on mountain slope. Surrounding vegetation: Picea engelmannii - Abies lasiocarpa.","LatitudeNorth":38.872222,"LatitudeSouth":38.872222,"Longitude":-107.0825,"Latitude":38.872222,"Datasets":[{"MaxAge":10873,"DatabaseName":"North American Pollen Database","CollUnitHandle":"COPLEY","CollUnitName":null,"MinAge":176,"AgeOldest":null,"AgeYoungest":null,"DatasetType":"pollen","DatasetID":506}]},{"SiteNotes":null,"SiteID":501,"AgeYoungest":199,"SiteName":"Cottonwood Pass Pond","MaxAge":9367,"LongitudeWest":-106.410278,"MinAge":199,"AgeOldest":9367,"LongitudeEast":-106.410278,"SiteDescription":"Alpine pond. Physiography: glaciated mountain pass. Surrounding vegetation: Salix, sedges and grasses.","LatitudeNorth":38.828611,"LatitudeSouth":38.828611,"Longitude":-106.410278,"Latitude":38.828611,"Datasets":[{"MaxAge":9367,"DatabaseName":"North American Pollen Database","CollUnitHandle":"COTTPASS","CollUnitName":null,"MinAge":199,"AgeOldest":null,"AgeYoungest":null,"DatasetType":"pollen","DatasetID":514}]},{"SiteNotes":null,"SiteID":505,"AgeYoungest":14567,"SiteName":"Cranberry Glades","MaxAge":16143,"LongitudeWest":-80.283333,"MinAge":14567,"AgeOldest":16143,"LongitudeEast":-80.283333,"SiteDescription":null,"LatitudeNorth":38.2,"LatitudeSouth":38.2,"Longitude":-80.283333,"Latitude":38.2,"Datasets":[{"MaxAge":16143,"DatabaseName":"North American Pollen Database","CollUnitHandle":"CRANGLDS","CollUnitName":null,"MinAge":14567,"AgeOldest":null,"AgeYoungest":null,"DatasetType":"pollen","DatasetID":518}]},{"SiteNotes":null,"SiteID":510,"AgeYoungest":10091,"SiteName":"Crider's Pond","MaxAge":18955,"LongitudeWest":-77.55,"MinAge":10091,"AgeOldest":18955,"LongitudeEast":-77.55,"SiteDescription":null,"LatitudeNorth":39.966667,"LatitudeSouth":39.966667,"Longitude":-77.55,"Latitude":39.966667,"Datasets":[{"MaxAge":18955,"DatabaseName":"North American Pollen Database","CollUnitHandle":"CRIDERS","CollUnitName":null,"MinAge":10091,"AgeOldest":null,"AgeYoungest":null,"DatasetType":"pollen","DatasetID":523}]},{"SiteNotes":null,"SiteID":518,"AgeYoungest":23,"SiteName":"Cub Lake","MaxAge":10098,"LongitudeWest":-84.958333,"MinAge":23,"AgeOldest":10098,"LongitudeEast":-84.958333,"SiteDescription":null,"LatitudeNorth":44.7,"LatitudeSouth":44.7,"Longitude":-84.958333,"Latitude":44.7,"Datasets":[{"MaxAge":10098,"DatabaseName":"North American Pollen Database","CollUnitHandle":"CUB2","CollUnitName":null,"MinAge":23,"AgeOldest":null,"AgeYoungest":null,"DatasetType":"pollen","DatasetID":532}]},{"SiteNotes":null,"SiteID":519,"AgeYoungest":128,"SiteName":"Cub Creek Pond","MaxAge":12042,"LongitudeWest":-110.283611,"MinAge":128,"AgeOldest":12042,"LongitudeEast":-110.283611,"SiteDescription":"Small pond with sedge mat. Physiography: Yellowstone plateau. Surrounding vegetation: Pinus contorta, Picea, Abies,.","LatitudeNorth":44.49,"LatitudeSouth":44.49,"Longitude":-110.283611,"Latitude":44.49,"Datasets":[{"MaxAge":12042,"DatabaseName":"North American Pollen Database","CollUnitHandle":"CUBCRKPD","CollUnitName":"core A","MinAge":128,"AgeOldest":null,"AgeYoungest":null,"DatasetType":"pollen","DatasetID":533}]},{"SiteNotes":null,"SiteID":520,"AgeYoungest":0,"SiteName":"Cub Lake","MaxAge":11068,"LongitudeWest":-111.183333,"MinAge":0,"AgeOldest":11068,"LongitudeEast":-111.183333,"SiteDescription":"Shallow lake. Physiography: west slope Yellowstone Plateau. Surrounding vegetation: lodgepole pine, Douglas fir.","LatitudeNorth":44.125,"LatitudeSouth":44.125,"Longitude":-111.183333,"Latitude":44.125,"Datasets":[{"MaxAge":11068,"DatabaseName":"North American Pollen Database","CollUnitHandle":"CUBID","CollUnitName":null,"MinAge":0,"AgeOldest":null,"AgeYoungest":null,"DatasetType":"pollen","DatasetID":534}]},{"SiteNotes":null,"SiteID":534,"AgeYoungest":13270,"SiteName":"Davis Lake","MaxAge":18891,"LongitudeWest":-122.25,"MinAge":13270,"AgeOldest":18891,"LongitudeEast":-122.25,"SiteDescription":"Lake. Physiography: Puget Sound lowland. Surrounding vegetation: Psuedotsuga with Tsuga and Thuja.","LatitudeNorth":46.591667,"LatitudeSouth":46.591667,"Longitude":-122.25,"Latitude":46.591667,"Datasets":[{"MaxAge":18891,"DatabaseName":"North American Pollen Database","CollUnitHandle":"DAVIS","CollUnitName":"core A","MinAge":13270,"AgeOldest":null,"AgeYoungest":null,"DatasetType":"pollen","DatasetID":550}]},{"SiteNotes":null,"SiteID":562,"AgeYoungest":9878,"SiteName":"Tom Swamp","MaxAge":15869,"LongitudeWest":-72.2125,"MinAge":9878,"AgeOldest":15869,"LongitudeEast":-72.2125,"SiteDescription":"Larix-Picea mariana-Sphagnum bog.. Physiography: rolling topog.- valley between ridges. Surrounding vegetation: oak with mixed hardwd/hemlock/white pine.","LatitudeNorth":42.516667,"LatitudeSouth":42.516667,"Longitude":-72.2125,"Latitude":42.516667,"Datasets":[{"MaxAge":15869,"DatabaseName":"North American Pollen Database","CollUnitHandle":"TOM16A","CollUnitName":"boring 16A","MinAge":9878,"AgeOldest":null,"AgeYoungest":null,"DatasetType":"pollen","DatasetID":3789}]},{"SiteNotes":"Lake is called Toadlena Lake on the USGS 7.5' Toadlena quad map.","SiteID":655,"AgeYoungest":19810,"SiteName":"Dead Man Lake","MaxAge":19810,"LongitudeWest":-108.951667,"MinAge":19810,"AgeOldest":19810,"LongitudeEast":-108.951667,"SiteDescription":"Sandstone depression formed by piping. Physiography: crest of the Chuska Mountains. Surrounding vegetation: Pinus ponderosa forest.","LatitudeNorth":36.2375,"LatitudeSouth":36.2375,"Longitude":-108.951667,"Latitude":36.2375,"Datasets":[{"MaxAge":19810,"DatabaseName":"North American Pollen Database","CollUnitHandle":"DEAD5826","CollUnitName":"Core 5826","MinAge":19810,"AgeOldest":null,"AgeYoungest":null,"DatasetType":"pollen","DatasetID":671}]},{"SiteNotes":null,"SiteID":661,"AgeYoungest":263,"SiteName":"Demont Lake","MaxAge":13338,"LongitudeWest":-85,"MinAge":263,"AgeOldest":13338,"LongitudeEast":-85,"SiteDescription":null,"LatitudeNorth":43.48,"LatitudeSouth":43.48,"Longitude":-85,"Latitude":43.48,"Datasets":[{"MaxAge":13338,"DatabaseName":"North American Pollen Database","CollUnitHandle":"DEMONTLK","CollUnitName":null,"MinAge":263,"AgeOldest":null,"AgeYoungest":null,"DatasetType":"pollen","DatasetID":679}]},{"SiteNotes":null,"SiteID":673,"AgeYoungest":277,"SiteName":"Dinkey Meadow","MaxAge":5607,"LongitudeWest":-119.083333,"MinAge":277,"AgeOldest":5607,"LongitudeEast":-119.083333,"SiteDescription":"Small clearing along Dinkey Creek. Physiography: Sierra Nevada Mountain Range. Surrounding vegetation: Lodgepole Pine, White Fir, Sugar Pine.","LatitudeNorth":37,"LatitudeSouth":37,"Longitude":-119.083333,"Latitude":37,"Datasets":[{"MaxAge":5607,"DatabaseName":"North American Pollen Database","CollUnitHandle":"DINKEY","CollUnitName":null,"MinAge":277,"AgeOldest":null,"AgeYoungest":null,"DatasetType":"pollen","DatasetID":693}]},{"SiteNotes":null,"SiteID":679,"AgeYoungest":11626,"SiteName":"Dismal Swamp (91)","MaxAge":11626,"LongitudeWest":-76.45,"MinAge":11626,"AgeOldest":11626,"LongitudeEast":-76.45,"SiteDescription":null,"LatitudeNorth":36.583333,"LatitudeSouth":36.583333,"Longitude":-76.45,"Latitude":36.583333,"Datasets":[{"MaxAge":11626,"DatabaseName":"North American Pollen Database","CollUnitHandle":"DISMAL","CollUnitName":"core DS-1","MinAge":11626,"AgeOldest":null,"AgeYoungest":null,"DatasetType":"pollen","DatasetID":699}]},{"SiteNotes":null,"SiteID":680,"AgeYoungest":2665,"SiteName":"Disterhaft Farm Bog","MaxAge":12788,"LongitudeWest":-89.166944,"MinAge":2665,"AgeOldest":12788,"LongitudeEast":-89.166944,"SiteDescription":"Bog in a kettle. Physiography: Green Lake moraine. Surrounding vegetation: Quercus/Betula/Corylus/Sphagnum/Salix.","LatitudeNorth":43.916944,"LatitudeSouth":43.916944,"Longitude":-89.166944,"Latitude":43.916944,"Datasets":[{"MaxAge":12788,"DatabaseName":"North American Pollen Database","CollUnitHandle":"DISTER59","CollUnitName":null,"MinAge":2665,"AgeOldest":null,"AgeYoungest":null,"DatasetType":"pollen","DatasetID":700}]},{"SiteNotes":null,"SiteID":728,"AgeYoungest":7281,"SiteName":"Heart Lake","MaxAge":13854,"LongitudeWest":-73.9675,"MinAge":7281,"AgeOldest":13854,"LongitudeEast":-73.9675,"SiteDescription":null,"LatitudeNorth":44.180556,"LatitudeSouth":44.180556,"Longitude":-73.9675,"Latitude":44.180556,"Datasets":[{"MaxAge":13854,"DatabaseName":"North American Pollen Database","CollUnitHandle":"HEARTNY","CollUnitName":null,"MinAge":7281,"AgeOldest":null,"AgeYoungest":null,"DatasetType":"pollen","DatasetID":3130}]},{"SiteNotes":null,"SiteID":745,"AgeYoungest":8102,"SiteName":"Upper Wallface Pond","MaxAge":9497,"LongitudeWest":-74.054167,"MinAge":8102,"AgeOldest":9497,"LongitudeEast":-74.054167,"SiteDescription":null,"LatitudeNorth":44.146389,"LatitudeSouth":44.146389,"Longitude":-74.054167,"Latitude":44.146389,"Datasets":[{"MaxAge":9497,"DatabaseName":"North American Pollen Database","CollUnitHandle":"UPWALLFC","CollUnitName":null,"MinAge":8102,"AgeOldest":null,"AgeYoungest":null,"DatasetType":"pollen","DatasetID":3830}]},{"SiteNotes":null,"SiteID":794,"AgeYoungest":0,"SiteName":"Exchequer Meadow","MaxAge":13773,"LongitudeWest":-119.833333,"MinAge":0,"AgeOldest":13773,"LongitudeEast":-119.833333,"SiteDescription":"Wet meadow. Physiography: Sierra Nevada Mountains. Surrounding vegetation: Pinus jeffreyi, Abies magnifica.","LatitudeNorth":37,"LatitudeSouth":37,"Longitude":-119.833333,"Latitude":37,"Datasets":[{"MaxAge":13773,"DatabaseName":"North American Pollen Database","CollUnitHandle":"EXCHEQUE","CollUnitName":null,"MinAge":0,"AgeOldest":null,"AgeYoungest":null,"DatasetType":"pollen","DatasetID":816}]},{"SiteNotes":null,"SiteID":801,"AgeYoungest":80,"SiteName":"Fawn Lake","MaxAge":425,"LongitudeWest":-94.753333,"MinAge":80,"AgeOldest":425,"LongitudeEast":-94.753333,"SiteDescription":"Kettle lake. Physiography: ground moraine.","LatitudeNorth":46.218889,"LatitudeSouth":46.218889,"Longitude":-94.753333,"Latitude":46.218889,"Datasets":[{"MaxAge":425,"DatabaseName":"North American Pollen Database","CollUnitHandle":"FAWNLAKE","CollUnitName":null,"MinAge":80,"AgeOldest":null,"AgeYoungest":null,"DatasetType":"pollen","DatasetID":824}]},{"SiteNotes":null,"SiteID":804,"AgeYoungest":26,"SiteName":"Ferndale Bog","MaxAge":466,"LongitudeWest":-95.808333,"MinAge":26,"AgeOldest":466,"LongitudeEast":-95.808333,"SiteDescription":"Peat bog on Jackfork sandstone ridge. Physiography: Ouachita Mountains. Surrounding vegetation: elm/oak/hickory/pine/willow.","LatitudeNorth":34.405556,"LatitudeSouth":34.405556,"Longitude":-95.808333,"Latitude":34.405556,"Datasets":[{"MaxAge":466,"DatabaseName":"North American Pollen Database","CollUnitHandle":"FERNDALE","CollUnitName":"top sample/core IV","MinAge":26,"AgeOldest":null,"AgeYoungest":null,"DatasetType":"pollen","DatasetID":3126}]},{"SiteNotes":null,"SiteID":811,"AgeYoungest":0,"SiteName":"Floating Island Lake","MaxAge":11225,"LongitudeWest":-107.466667,"MinAge":0,"AgeOldest":11225,"LongitudeEast":-107.466667,"SiteDescription":"Kettle lake with floating sedge mat. Physiography: Bighorn Mountains. Surrounding vegetation: lodgepole pine forest.","LatitudeNorth":44.55,"LatitudeSouth":44.55,"Longitude":-107.466667,"Latitude":44.55,"Datasets":[{"MaxAge":11225,"DatabaseName":"North American Pollen Database","CollUnitHandle":"FLOATIL1","CollUnitName":"FIL-1","MinAge":0,"AgeOldest":null,"AgeYoungest":null,"DatasetType":"pollen","DatasetID":835},{"MaxAge":11223,"DatabaseName":"North American Pollen Database","CollUnitHandle":"FLOATIL2","CollUnitName":"FIL-2","MinAge":9517,"AgeOldest":null,"AgeYoungest":null,"DatasetType":"pollen","DatasetID":3127}]},{"SiteNotes":null,"SiteID":820,"AgeYoungest":9,"SiteName":"Fox Pond","MaxAge":1018,"LongitudeWest":-95.558333,"MinAge":9,"AgeOldest":1018,"LongitudeEast":-95.558333,"SiteDescription":"Kettle lake. Physiography: Itasca Moraine, rolling.","LatitudeNorth":47.165,"LatitudeSouth":47.165,"Longitude":-95.558333,"Latitude":47.165,"Datasets":[{"MaxAge":1018,"DatabaseName":"North American Pollen Database","CollUnitHandle":"FOXPOND","CollUnitName":null,"MinAge":9,"AgeOldest":null,"AgeYoungest":null,"DatasetType":"pollen","DatasetID":846}]},{"SiteNotes":null,"SiteID":821,"AgeYoungest":11153,"SiteName":"Frains Lake","MaxAge":13124,"LongitudeWest":-83.63,"MinAge":11153,"AgeOldest":13124,"LongitudeEast":-83.63,"SiteDescription":null,"LatitudeNorth":42.33,"LatitudeSouth":42.33,"Longitude":-83.63,"Latitude":42.33,"Datasets":[{"MaxAge":13124,"DatabaseName":"North American Pollen Database","CollUnitHandle":"FRAINSLK","CollUnitName":null,"MinAge":11153,"AgeOldest":null,"AgeYoungest":null,"DatasetType":"pollen","DatasetID":847}]},{"SiteNotes":"Site also called Swan Lake Flats.","SiteID":832,"AgeYoungest":0,"SiteName":"Gardiner's Hole","MaxAge":13061,"LongitudeWest":-110.733333,"MinAge":0,"AgeOldest":13061,"LongitudeEast":-110.733333,"SiteDescription":"Open sagebrush meadow. Physiography: intermontane basin. Surrounding vegetation: open Artemisia steppe.","LatitudeNorth":44.916667,"LatitudeSouth":44.916667,"Longitude":-110.733333,"Latitude":44.916667,"Datasets":[{"MaxAge":13061,"DatabaseName":"North American Pollen Database","CollUnitHandle":"GARDINER","CollUnitName":null,"MinAge":0,"AgeOldest":null,"AgeYoungest":null,"DatasetType":"pollen","DatasetID":859}]},{"SiteNotes":"Latitude/Longitude are an estimate. Site is 10 miles northwest of Cody, Wyoming.","SiteID":936,"AgeYoungest":142,"SiteName":"Goff Lake","MaxAge":4052,"LongitudeWest":-109.838611,"MinAge":142,"AgeOldest":4052,"LongitudeEast":-109.838611,"SiteDescription":"Small lake. Physiography: Yellowstone plateau/hummocky topography. Surrounding vegetation: sagebrush.","LatitudeNorth":44.4525,"LatitudeSouth":44.4525,"Longitude":-109.838611,"Latitude":44.4525,"Datasets":[{"MaxAge":4052,"DatabaseName":"North American Pollen Database","CollUnitHandle":"GOFF","CollUnitName":null,"MinAge":142,"AgeOldest":null,"AgeYoungest":null,"DatasetType":"pollen","DatasetID":965}]},{"SiteNotes":"Property of Harvard Forest.","SiteID":942,"AgeYoungest":3673,"SiteName":"Gould's Bog","MaxAge":10505,"LongitudeWest":-72.183333,"MinAge":3673,"AgeOldest":10505,"LongitudeEast":-72.183333,"SiteDescription":"Boggy swale with red maple. Physiography: Side of north-south ridge, rolling topo. Surrounding vegetation: oak with mixed hardwoods,hemlock, w.pine.","LatitudeNorth":42.533333,"LatitudeSouth":42.533333,"Longitude":-72.183333,"Latitude":42.533333,"Datasets":[{"MaxAge":10505,"DatabaseName":"North American Pollen Database","CollUnitHandle":"GOULDBOG","CollUnitName":null,"MinAge":3673,"AgeOldest":null,"AgeYoungest":null,"DatasetType":"pollen","DatasetID":972}]},{"SiteNotes":null,"SiteID":952,"AgeYoungest":5562,"SiteName":"Green Lake","MaxAge":12681,"LongitudeWest":-85.116667,"MinAge":5562,"AgeOldest":12681,"LongitudeEast":-85.116667,"SiteDescription":null,"LatitudeNorth":44.883333,"LatitudeSouth":44.883333,"Longitude":-85.116667,"Latitude":44.883333,"Datasets":[{"MaxAge":12681,"DatabaseName":"North American Pollen Database","CollUnitHandle":"GREENLK","CollUnitName":"core B","MinAge":5562,"AgeOldest":null,"AgeYoungest":null,"DatasetType":"pollen","DatasetID":982}]},{"SiteNotes":null,"SiteID":959,"AgeYoungest":334,"SiteName":"Grice Pond","MaxAge":425,"LongitudeWest":-95.75911,"MinAge":334,"AgeOldest":425,"LongitudeEast":-95.75192,"SiteDescription":"Kettle lake. Physiography: rolling end moraine.","LatitudeNorth":47.20642,"LatitudeSouth":47.20078,"Longitude":-95.755515,"Latitude":47.2036,"Datasets":[{"MaxAge":425,"DatabaseName":"North American Pollen Database","CollUnitHandle":"GRICE","CollUnitName":null,"MinAge":334,"AgeOldest":null,"AgeYoungest":null,"DatasetType":"pollen","DatasetID":990}]},{"SiteNotes":null,"SiteID":961,"AgeYoungest":50,"SiteName":"Water Conservation Area 3B, Gumbo Limbo Dry Head","MaxAge":1083,"LongitudeWest":-80.505556,"MinAge":50,"AgeOldest":1083,"LongitudeEast":-80.505556,"SiteDescription":"Tree island near marsh. Physiography: coastal plain. Surrounding vegetation: Rivina, Acrostichum, Bursera, Saururus.","LatitudeNorth":25.773889,"LatitudeSouth":25.773889,"Longitude":-80.505556,"Latitude":25.773889,"Datasets":[{"MaxAge":1083,"DatabaseName":"North American Pollen Database","CollUnitHandle":"GUMLIMDH","CollUnitName":"98-04-21-8D","MinAge":50,"AgeOldest":null,"AgeYoungest":null,"DatasetType":"pollen","DatasetID":992}]},{"SiteNotes":null,"SiteID":962,"AgeYoungest":4108,"SiteName":"Water Conservation Area 3B, Gumbo Limbo Far Tail","MaxAge":4108,"LongitudeWest":-80.505556,"MinAge":4108,"AgeOldest":4108,"LongitudeEast":-80.505556,"SiteDescription":"Marsh near tree island. Physiography: coastal plain. Surrounding vegetation: Cladium, Cephalanthus, Ludwigia.","LatitudeNorth":25.774722,"LatitudeSouth":25.774722,"Longitude":-80.505556,"Latitude":25.774722,"Datasets":[{"MaxAge":4108,"DatabaseName":"North American Pollen Database","CollUnitHandle":"GUMLIMFT","CollUnitName":"98-04-21-GLFT","MinAge":4108,"AgeOldest":null,"AgeYoungest":null,"DatasetType":"pollen","DatasetID":993}]},{"SiteNotes":null,"SiteID":963,"AgeYoungest":618,"SiteName":"Water Conservation Area 3B, Gumbo Limbo Marsh","MaxAge":3704,"LongitudeWest":-80.511111,"MinAge":618,"AgeOldest":3704,"LongitudeEast":-80.511111,"SiteDescription":"Cladium marsh near tree island. Physiography: coastal plain. Surrounding vegetation: Bacopa, Eleocharis, Utricularia, Cladium.","LatitudeNorth":25.778889,"LatitudeSouth":25.778889,"Longitude":-80.511111,"Latitude":25.778889,"Datasets":[{"MaxAge":3704,"DatabaseName":"North American Pollen Database","CollUnitHandle":"GUMLIMM","CollUnitName":"98-04-21-5D","MinAge":618,"AgeOldest":null,"AgeYoungest":null,"DatasetType":"pollen","DatasetID":994}]},{"SiteNotes":null,"SiteID":968,"AgeYoungest":0,"SiteName":"Hack Pond","MaxAge":19433,"LongitudeWest":-78.997222,"MinAge":0,"AgeOldest":19433,"LongitudeEast":-78.997222,"SiteDescription":"Solution hollow. Surrounding vegetation: Quercus, Pinus, Carya, Castanea, Juniper.","LatitudeNorth":37.984722,"LatitudeSouth":37.984722,"Longitude":-78.997222,"Latitude":37.984722,"Datasets":[{"MaxAge":19433,"DatabaseName":"North American Pollen Database","CollUnitHandle":"HACK","CollUnitName":null,"MinAge":0,"AgeOldest":null,"AgeYoungest":null,"DatasetType":"pollen","DatasetID":999}]},{"SiteNotes":"Spelling is \"Hanson\" Basin in Google Earth.","SiteID":973,"AgeYoungest":1581,"SiteName":"Hansen Marsh","MaxAge":11254,"LongitudeWest":-89.67916,"MinAge":1581,"AgeOldest":11254,"LongitudeEast":-89.66247,"SiteDescription":"Marsh, southern sedge meadow, located in \"Hanson Basin\". Physiography: borders Driftless Area. Surrounding vegetation: Quercus, Acer, Ulmus, Prunus, Juglans.","LatitudeNorth":43.44448,"LatitudeSouth":43.43469,"Longitude":-89.670815,"Latitude":43.439585,"Datasets":[{"MaxAge":11254,"DatabaseName":"North American Pollen Database","CollUnitHandle":"HANSEN","CollUnitName":null,"MinAge":1581,"AgeOldest":null,"AgeYoungest":null,"DatasetType":"pollen","DatasetID":1004}]},{"SiteNotes":null,"SiteID":981,"AgeYoungest":9865,"SiteName":"Hawley Bog Pond-1","MaxAge":10701,"LongitudeWest":-72.883333,"MinAge":9865,"AgeOldest":10701,"LongitudeEast":-72.883333,"SiteDescription":null,"LatitudeNorth":42.566667,"LatitudeSouth":42.566667,"Longitude":-72.883333,"Latitude":42.566667,"Datasets":[{"MaxAge":10701,"DatabaseName":"North American Pollen Database","CollUnitHandle":"HAWLEY1","CollUnitName":null,"MinAge":9865,"AgeOldest":null,"AgeYoungest":null,"DatasetType":"pollen","DatasetID":1012}]},{"SiteNotes":null,"SiteID":982,"AgeYoungest":106,"SiteName":"Hay Lake","MaxAge":19253,"LongitudeWest":-109.425,"MinAge":106,"AgeOldest":19253,"LongitudeEast":-109.425,"SiteDescription":"Lake on basaltic bedrock. Physiography: White Mountains. Surrounding vegetation: Pinus-Pseudotsuga-Abies-Juniperus.","LatitudeNorth":34,"LatitudeSouth":34,"Longitude":-109.425,"Latitude":34,"Datasets":[{"MaxAge":19253,"DatabaseName":"North American Pollen Database","CollUnitHandle":"HAYLAKE","CollUnitName":null,"MinAge":106,"AgeOldest":null,"AgeYoungest":null,"DatasetType":"pollen","DatasetID":1013}]},{"SiteNotes":null,"SiteID":998,"AgeYoungest":3719,"SiteName":"Helmetta Bog","MaxAge":11417,"LongitudeWest":-74.433333,"MinAge":3719,"AgeOldest":11417,"LongitudeEast":-74.433333,"SiteDescription":null,"LatitudeNorth":40.383333,"LatitudeSouth":40.383333,"Longitude":-74.433333,"Latitude":40.383333,"Datasets":[{"MaxAge":11417,"DatabaseName":"North American Pollen Database","CollUnitHandle":"HELMETTA","CollUnitName":null,"MinAge":3719,"AgeOldest":null,"AgeYoungest":null,"DatasetType":"pollen","DatasetID":1031}]},{"SiteNotes":"Site also called Squirrel Lake.","SiteID":1076,"AgeYoungest":137,"SiteName":"Blocknic Lake [Horse Pond]","MaxAge":137,"LongitudeWest":-95.87041,"MinAge":137,"AgeOldest":137,"LongitudeEast":-95.86691,"SiteDescription":"Kettle lake. Physiography: gently rolling ground moraine. Surrounding vegetation: cultivated fields and pasture.","LatitudeNorth":47.18376,"LatitudeSouth":47.17931,"Longitude":-95.86866,"Latitude":47.181535,"Datasets":[{"MaxAge":137,"DatabaseName":"North American Pollen Database","CollUnitHandle":"HORSE","CollUnitName":null,"MinAge":137,"AgeOldest":null,"AgeYoungest":null,"DatasetType":"pollen","DatasetID":1109}]},{"SiteNotes":"Site is in Indiana Dunes National Lakeshore.","SiteID":1081,"AgeYoungest":1080,"SiteName":"Howes Prairie Marsh","MaxAge":4756,"LongitudeWest":-87.072222,"MinAge":1080,"AgeOldest":4756,"LongitudeEast":-87.072222,"SiteDescription":"Interdunal depression (pann√©). Physiography: coastal dunes. Surrounding vegetation: oak-hickory forest, prairie.","LatitudeNorth":41.65,"LatitudeSouth":41.65,"Longitude":-87.072222,"Latitude":41.65,"Datasets":[{"MaxAge":4756,"DatabaseName":"North American Pollen Database","CollUnitHandle":"HOWES","CollUnitName":null,"MinAge":1080,"AgeOldest":null,"AgeYoungest":null,"DatasetType":"pollen","DatasetID":1114}]},{"SiteNotes":null,"SiteID":1100,"AgeYoungest":11511,"SiteName":"Hudson Lake","MaxAge":12263,"LongitudeWest":-86.53,"MinAge":11511,"AgeOldest":12263,"LongitudeEast":-86.53,"SiteDescription":null,"LatitudeNorth":41.67,"LatitudeSouth":41.67,"Longitude":-86.53,"Latitude":41.67,"Datasets":[{"MaxAge":12263,"DatabaseName":"North American Pollen Database","CollUnitHandle":"HUDSONLK","CollUnitName":null,"MinAge":11511,"AgeOldest":null,"AgeYoungest":null,"DatasetType":"pollen","DatasetID":1133}]},{"SiteNotes":null,"SiteID":1117,"AgeYoungest":230,"SiteName":"Iola Bog","MaxAge":11351,"LongitudeWest":-89.116944,"MinAge":230,"AgeOldest":11351,"LongitudeEast":-89.116944,"SiteDescription":"Steep sided kettle pond. Physiography: Cary ground moraine. Surrounding vegetation: moses, Ericaceae, sedges, Laris, Spruce.","LatitudeNorth":44.5,"LatitudeSouth":44.5,"Longitude":-89.116944,"Latitude":44.5,"Datasets":[{"MaxAge":11351,"DatabaseName":"North American Pollen Database","CollUnitHandle":"IOLABOG","CollUnitName":null,"MinAge":230,"AgeOldest":null,"AgeYoungest":null,"DatasetType":"pollen","DatasetID":1151}]},{"SiteNotes":null,"SiteID":1118,"AgeYoungest":204,"SiteName":"Keystone Ironbog","MaxAge":9187,"LongitudeWest":-107.033333,"MinAge":204,"AgeOldest":9187,"LongitudeEast":-107.033333,"SiteDescription":"Iron oxide acid fen. Physiography: small basin behind moraine along creek. Surrounding vegetation: Carex,Sphagnum,Eriophorum,Bet.glandulosa.","LatitudeNorth":38.865,"LatitudeSouth":38.865,"Longitude":-107.033333,"Latitude":38.865,"Datasets":[{"MaxAge":9187,"DatabaseName":"North American Pollen Database","CollUnitHandle":"IRONBOG","CollUnitName":null,"MinAge":204,"AgeOldest":null,"AgeYoungest":null,"DatasetType":"pollen","DatasetID":1152}]},{"SiteNotes":"Wilkins (1985) provides more detailed descriptions of the region.","SiteID":1125,"AgeYoungest":16457,"SiteName":"Jackson Pond","MaxAge":19726,"LongitudeWest":-85.7263,"MinAge":16457,"AgeOldest":19726,"LongitudeEast":-85.72294,"SiteDescription":"Pond is a circular, shallow sinkhole (3.5 ha) in a karst up-land of gentle relief. Hillcrests are 10-15 m above the surface of the basin. Most of the surrounding area is in cropland or pasture, with scattered woodlots of Quercus and Carya spp. Fagus grandifolia, Fraxinus americana, Acer saccharum, and other mesic species occur in valley bottoms. The basin itself at the time of coring was vegetated by emergent Nuphar, graminoids (Cyperaceae and Poaceae), and scattered individuals of C. occidentalis and A. saccharum.","LatitudeNorth":37.43362,"LatitudeSouth":37.43148,"Longitude":-85.72462,"Latitude":37.43255,"Datasets":[{"MaxAge":19726,"DatabaseName":"North American Plant Macrofossil Database","CollUnitHandle":"JACKSN07","CollUnitName":null,"MinAge":16457,"AgeOldest":20235,"AgeYoungest":15749,"DatasetType":"pollen","DatasetID":15081}]},{"SiteNotes":null,"SiteID":1127,"AgeYoungest":26,"SiteName":"Jacob Lake","MaxAge":19126,"LongitudeWest":-110.833333,"MinAge":26,"AgeOldest":19126,"LongitudeEast":-110.833333,"SiteDescription":"Ephemeral lake/sinkhole in sandstone. Physiography: Mogollon Rim. Surrounding vegetation: ponderosa pine forest.","LatitudeNorth":34.333333,"LatitudeSouth":34.333333,"Longitude":-110.833333,"Latitude":34.333333,"Datasets":[{"MaxAge":19126,"DatabaseName":"North American Pollen Database","CollUnitHandle":"JACOB","CollUnitName":null,"MinAge":26,"AgeOldest":null,"AgeYoungest":null,"DatasetType":"pollen","DatasetID":1162}]},{"SiteNotes":"Lake data from North Dakota Game and Fish Department based on full pool: http://gf.nd.gov/gnf/maps/fishing/lakecontours/spiritwood2003.pdf","SiteID":1222,"AgeYoungest":1967,"SiteName":"Spiritwood Lake","MaxAge":1967,"LongitudeWest":-98.60348,"MinAge":1967,"AgeOldest":1967,"LongitudeEast":-98.56972,"SiteDescription":"Lake lies in the Spiritwood chain of lakes, which lies in the Spiritwood buried valley complex.  Physiography: rolling collapse moraine. Surrounding vegetation: agricultural, sparse Ulmus, Quercus.","LatitudeNorth":47.08102,"LatitudeSouth":47.06837,"Longitude":-98.5866,"Latitude":47.074695,"Datasets":[{"MaxAge":1967,"DatabaseName":"North American Pollen Database","CollUnitHandle":"SPIRITWD","CollUnitName":null,"MinAge":1967,"AgeOldest":null,"AgeYoungest":null,"DatasetType":"pollen","DatasetID":3774}]},{"SiteNotes":null,"SiteID":1483,"AgeYoungest":10074,"SiteName":"Kirchner Marsh","MaxAge":10156,"LongitudeWest":-93.1249,"MinAge":10074,"AgeOldest":10156,"LongitudeEast":-93.1202,"SiteDescription":"Marsh on St. Croix Moraine. Physiography: ice block depression in hilly terrain. Surrounding vegetation: white/red/and bur oak.","LatitudeNorth":44.7724,"LatitudeSouth":44.7693,"Longitude":-93.12255,"Latitude":44.77085,"Datasets":[{"MaxAge":10156,"DatabaseName":"North American Pollen Database","CollUnitHandle":"KIRCHNR1","CollUnitName":"K-1","MinAge":10074,"AgeOldest":null,"AgeYoungest":null,"DatasetType":"pollen","DatasetID":1520}]},{"SiteNotes":null,"SiteID":1485,"AgeYoungest":1249,"SiteName":"Kirk Lake","MaxAge":14990,"LongitudeWest":-121.616667,"MinAge":1249,"AgeOldest":14990,"LongitudeEast":-121.616667,"SiteDescription":"Small lake. Physiography: North Cascade range mountains.","LatitudeNorth":48.233333,"LatitudeSouth":48.233333,"Longitude":-121.616667,"Latitude":48.233333,"Datasets":[{"MaxAge":14990,"DatabaseName":"North American Pollen Database","CollUnitHandle":"KIRK","CollUnitName":null,"MinAge":1249,"AgeOldest":16808,"AgeYoungest":578,"DatasetType":"pollen","DatasetID":1523}]},{"SiteNotes":null,"SiteID":1510,"AgeYoungest":164,"SiteName":"Kotiranta Lake","MaxAge":11768,"LongitudeWest":-92.62,"MinAge":164,"AgeOldest":11768,"LongitudeEast":-92.62,"SiteDescription":"Lake with floating sedge mat rim. Physiography: Sawyer outwash plain. Surrounding vegetation: Picea mariana.","LatitudeNorth":46.72,"LatitudeSouth":46.72,"Longitude":-92.62,"Latitude":46.72,"Datasets":[{"MaxAge":11768,"DatabaseName":"North American Pollen Database","CollUnitHandle":"KOTIRANT","CollUnitName":null,"MinAge":164,"AgeOldest":null,"AgeYoungest":null,"DatasetType":"pollen","DatasetID":1548}]},{"SiteNotes":null,"SiteID":1597,"AgeYoungest":0,"SiteName":"Lake Annie","MaxAge":15149,"LongitudeWest":-81.416667,"MinAge":0,"AgeOldest":15149,"LongitudeEast":-81.416667,"SiteDescription":null,"LatitudeNorth":27.2,"LatitudeSouth":27.2,"Longitude":-81.416667,"Latitude":27.2,"Datasets":[{"MaxAge":15149,"DatabaseName":"North American Pollen Database","CollUnitHandle":"LKANNIE","CollUnitName":null,"MinAge":0,"AgeOldest":null,"AgeYoungest":null,"DatasetType":"pollen","DatasetID":1648}]},{"SiteNotes":null,"SiteID":1604,"AgeYoungest":9377,"SiteName":"Lockport Gulf Section","MaxAge":9377,"LongitudeWest":-78.716667,"MinAge":9377,"AgeOldest":9377,"LongitudeEast":-78.716667,"SiteDescription":"Ancient L. Ontario spillway channel.","LatitudeNorth":43.166667,"LatitudeSouth":43.166667,"Longitude":-78.716667,"Latitude":43.166667,"Datasets":[{"MaxAge":9377,"DatabaseName":"North American Pollen Database","CollUnitHandle":"LOCKPORT","CollUnitName":null,"MinAge":9377,"AgeOldest":null,"AgeYoungest":null,"DatasetType":"pollen","DatasetID":1655}]},{"SiteNotes":null,"SiteID":1607,"AgeYoungest":7999,"SiteName":"Lonesome Lake","MaxAge":10718,"LongitudeWest":-71.701111,"MinAge":7999,"AgeOldest":10718,"LongitudeEast":-71.701111,"SiteDescription":"Lake. Physiography: White Mountains. Surrounding vegetation: spruce-fir.","LatitudeNorth":44.14,"LatitudeSouth":44.14,"Longitude":-71.701111,"Latitude":44.14,"Datasets":[{"MaxAge":10718,"DatabaseName":"North American Pollen Database","CollUnitHandle":"LONESOME","CollUnitName":null,"MinAge":7999,"AgeOldest":null,"AgeYoungest":null,"DatasetType":"pollen","DatasetID":1658}]},{"SiteNotes":null,"SiteID":1609,"AgeYoungest":111,"SiteName":"Long Lake","MaxAge":19341,"LongitudeWest":-108.833333,"MinAge":111,"AgeOldest":19341,"LongitudeEast":-108.833333,"SiteDescription":"Sandstone depression formed by piping. Physiography: crest of the Chuska Mountains. Surrounding vegetation: Pinus ponderosa forest.","LatitudeNorth":36.005556,"LatitudeSouth":36.005556,"Longitude":-108.833333,"Latitude":36.005556,"Datasets":[{"MaxAge":19341,"DatabaseName":"North American Pollen Database","CollUnitHandle":"LONGLAKE","CollUnitName":null,"MinAge":111,"AgeOldest":null,"AgeYoungest":null,"DatasetType":"pollen","DatasetID":1660}]},{"SiteNotes":null,"SiteID":1610,"AgeYoungest":9565,"SiteName":"Longswamp","MaxAge":14698,"LongitudeWest":-75.666667,"MinAge":9565,"AgeOldest":14698,"LongitudeEast":-75.666667,"SiteDescription":null,"LatitudeNorth":40.483333,"LatitudeSouth":40.483333,"Longitude":-75.666667,"Latitude":40.483333,"Datasets":[{"MaxAge":14698,"DatabaseName":"North American Pollen Database","CollUnitHandle":"LONGSWMP","CollUnitName":null,"MinAge":9565,"AgeOldest":null,"AgeYoungest":null,"DatasetType":"pollen","DatasetID":1661}]},{"SiteNotes":null,"SiteID":1613,"AgeYoungest":3142,"SiteName":"Lost Lake","MaxAge":11553,"LongitudeWest":-87.97352,"MinAge":3142,"AgeOldest":11553,"LongitudeEast":-87.97062,"SiteDescription":null,"LatitudeNorth":46.72009,"LatitudeSouth":46.71878,"Longitude":-87.97207,"Latitude":46.719435,"Datasets":[{"MaxAge":11553,"DatabaseName":"North American Pollen Database","CollUnitHandle":"LOSTLAKE","CollUnitName":null,"MinAge":3142,"AgeOldest":null,"AgeYoungest":null,"DatasetType":"pollen","DatasetID":1665}]},{"SiteNotes":null,"SiteID":1615,"AgeYoungest":7185,"SiteName":"Lost Pond","MaxAge":16011,"LongitudeWest":-71.251389,"MinAge":7185,"AgeOldest":16011,"LongitudeEast":-71.251389,"SiteDescription":"Pond. Physiography: White Mountains. Surrounding vegetation: mixed hardwoods w/ white pine and hemlock.","LatitudeNorth":44.246944,"LatitudeSouth":44.246944,"Longitude":-71.251389,"Latitude":44.246944,"Datasets":[{"MaxAge":16011,"DatabaseName":"North American Pollen Database","CollUnitHandle":"LOSTPOND","CollUnitName":null,"MinAge":7185,"AgeOldest":null,"AgeYoungest":null,"DatasetType":"pollen","DatasetID":1667}]},{"SiteNotes":null,"SiteID":1617,"AgeYoungest":0,"SiteName":"Lake Louise","MaxAge":7937,"LongitudeWest":-83.258333,"MinAge":0,"AgeOldest":7937,"LongitudeEast":-83.258333,"SiteDescription":"Limestone sink. Physiography: coastal plain, low relief. Surrounding vegetation: Quercus/Magnolia/Aralia.","LatitudeNorth":30.725,"LatitudeSouth":30.725,"Longitude":-83.258333,"Latitude":30.725,"Datasets":[{"MaxAge":7937,"DatabaseName":"North American Pollen Database","CollUnitHandle":"LOUISE-D","CollUnitName":"core D","MinAge":0,"AgeOldest":null,"AgeYoungest":null,"DatasetType":"pollen","DatasetID":3484}]},{"SiteNotes":"Designated as Site 1, Loxahatchee NWR, in Willard et al. 2001; EPA Site 7, in Willard and Weimer 1997.","SiteID":1619,"AgeYoungest":6,"SiteName":"Loxahatchee National Wildlife Refuge Site 1 (EPA Site 7)","MaxAge":1473,"LongitudeWest":-80.415556,"MinAge":6,"AgeOldest":1473,"LongitudeEast":-80.415556,"SiteDescription":"Cladium marsh near tree island. Physiography: coastal plain. Surrounding vegetation: Cladium marsh near pop-up islands.","LatitudeNorth":26.481111,"LatitudeSouth":26.481111,"Longitude":-80.415556,"Latitude":26.481111,"Datasets":[{"MaxAge":1473,"DatabaseName":"North American Pollen Database","CollUnitHandle":"LOXAHAT1","CollUnitName":"95-04-21-2","MinAge":6,"AgeOldest":null,"AgeYoungest":null,"DatasetType":"pollen","DatasetID":1671}]},{"SiteNotes":null,"SiteID":1652,"AgeYoungest":0,"SiteName":"Martin Pond","MaxAge":11417,"LongitudeWest":-94.94493,"MinAge":0,"AgeOldest":11417,"LongitudeEast":-94.943,"SiteDescription":"Pond in center of treeless bog. Physiography: Itasca Moraine. Surrounding vegetation: Sphagnum/Chamaedaphne.","LatitudeNorth":47.17452,"LatitudeSouth":47.17343,"Longitude":-94.943965,"Latitude":47.173975,"Datasets":[{"MaxAge":11417,"DatabaseName":"North American Pollen Database","CollUnitHandle":"MARTINPD","CollUnitName":null,"MinAge":0,"AgeOldest":null,"AgeYoungest":null,"DatasetType":"pollen","DatasetID":1708}]},{"SiteNotes":null,"SiteID":1661,"AgeYoungest":5716,"SiteName":"Mayberry Well","MaxAge":19388,"LongitudeWest":-108.3,"MinAge":5716,"AgeOldest":19388,"LongitudeEast":-108.3,"SiteDescription":"Closed basin playa. Physiography: Datil-Mogollon volcanic plateau. Surrounding vegetation: pinyon-juniper woodland.","LatitudeNorth":33.7,"LatitudeSouth":33.7,"Longitude":-108.3,"Latitude":33.7,"Datasets":[{"MaxAge":19388,"DatabaseName":"North American Pollen Database","CollUnitHandle":"MAYBERRY","CollUnitName":null,"MinAge":5716,"AgeOldest":null,"AgeYoungest":null,"DatasetType":"pollen","DatasetID":1717}]},{"SiteNotes":null,"SiteID":1664,"AgeYoungest":87,"SiteName":"McCraney Lake","MaxAge":282,"LongitudeWest":-95.71632,"MinAge":87,"AgeOldest":282,"LongitudeEast":-95.689,"SiteDescription":"Kettle lake. Physiography: stagnation moraine, rolling.","LatitudeNorth":47.17574,"LatitudeSouth":47.166,"Longitude":-95.70266,"Latitude":47.17087,"Datasets":[{"MaxAge":282,"DatabaseName":"North American Pollen Database","CollUnitHandle":"MCCRANEY","CollUnitName":null,"MinAge":87,"AgeOldest":null,"AgeYoungest":null,"DatasetType":"pollen","DatasetID":1720}]},{"SiteNotes":null,"SiteID":1701,"AgeYoungest":3,"SiteName":"Lake Minnie","MaxAge":3214,"LongitudeWest":-95.01084,"MinAge":3,"AgeOldest":3214,"LongitudeEast":-95.00459,"SiteDescription":"Kettle lake. Physiography: Lake George outwash plain, undulating. Surrounding vegetation: Pinus banksiana, sparse shrub layer.","LatitudeNorth":47.24862,"LatitudeSouth":47.24089,"Longitude":-95.007715,"Latitude":47.244755,"Datasets":[{"MaxAge":3214,"DatabaseName":"North American Pollen Database","CollUnitHandle":"MINNIEN","CollUnitName":"Nearshore Core","MinAge":3,"AgeOldest":null,"AgeYoungest":null,"DatasetType":"pollen","DatasetID":1757},{"MaxAge":11300,"DatabaseName":"North American Pollen Database","CollUnitHandle":"MINNIEO","CollUnitName":"Offshore Core","MinAge":1,"AgeOldest":null,"AgeYoungest":null,"DatasetType":"pollen","DatasetID":3492}]},{"SiteNotes":null,"SiteID":1705,"AgeYoungest":82,"SiteName":"Molas Lake","MaxAge":18958,"LongitudeWest":-107.683611,"MinAge":82,"AgeOldest":18958,"LongitudeEast":-107.683611,"SiteDescription":"Lake in depression of limestone bedrock. Physiography: Animas Valley, San Juan Mountains. Surrounding vegetation: Spruce, fir and grassland.","LatitudeNorth":37.745833,"LatitudeSouth":37.745833,"Longitude":-107.683611,"Latitude":37.745833,"Datasets":[{"MaxAge":18958,"DatabaseName":"North American Pollen Database","CollUnitHandle":"MOLAS","CollUnitName":null,"MinAge":82,"AgeOldest":null,"AgeYoungest":null,"DatasetType":"pollen","DatasetID":1761}]},{"SiteNotes":null,"SiteID":1706,"AgeYoungest":3669,"SiteName":"Molas Pass Bog","MaxAge":11165,"LongitudeWest":-107.6975,"MinAge":3669,"AgeOldest":11165,"LongitudeEast":-107.6975,"SiteDescription":"Linear depression of limestone bedrock. Physiography: Animas Valley, San Juan Mountains. Surrounding vegetation: Spruce, fir, and grassland.","LatitudeNorth":37.737778,"LatitudeSouth":37.737778,"Longitude":-107.6975,"Latitude":37.737778,"Datasets":[{"MaxAge":11165,"DatabaseName":"North American Pollen Database","CollUnitHandle":"MOLASBOG","CollUnitName":null,"MinAge":3669,"AgeOldest":null,"AgeYoungest":null,"DatasetType":"pollen","DatasetID":1762}]},{"SiteNotes":null,"SiteID":1710,"AgeYoungest":7946,"SiteName":"Montezuma Well","MaxAge":12923,"LongitudeWest":-111.7528,"MinAge":7946,"AgeOldest":12923,"LongitudeEast":-111.7517,"SiteDescription":"Thermal spring sinkhole, 16 m deep. Surrounding vegetation: desert scrub/semidesert grassland.","LatitudeNorth":34.6496,"LatitudeSouth":34.6488,"Longitude":-111.75225,"Latitude":34.6492,"Datasets":[{"MaxAge":12923,"DatabaseName":"North American Pollen Database","CollUnitHandle":"MONTEZUM","CollUnitName":null,"MinAge":7946,"AgeOldest":null,"AgeYoungest":null,"DatasetType":"pollen","DatasetID":1766}]},{"SiteNotes":"Designated as Site 8, Everglades National Park, in Willard et al. 2001.","SiteID":1718,"AgeYoungest":5,"SiteName":"Mud Creek Site 1","MaxAge":1897,"LongitudeWest":-80.604722,"MinAge":5,"AgeOldest":1897,"LongitudeEast":-80.604722,"SiteDescription":"Dwarf Rhizophora/wet prairie. Physiography: coastal plain. Surrounding vegetation: dwarf Rhizophora scrub forest.","LatitudeNorth":25.219722,"LatitudeSouth":25.219722,"Longitude":-80.604722,"Latitude":25.219722,"Datasets":[{"MaxAge":1897,"DatabaseName":"North American Pollen Database","CollUnitHandle":"MUDCRK1","CollUnitName":"96-03-15-1","MinAge":5,"AgeOldest":null,"AgeYoungest":null,"DatasetType":"pollen","DatasetID":1775}]},{"SiteNotes":null,"SiteID":1719,"AgeYoungest":0,"SiteName":"Mud Lake (US:Florida)","MaxAge":5815,"LongitudeWest":-81.866667,"MinAge":0,"AgeOldest":5815,"LongitudeEast":-81.866667,"SiteDescription":null,"LatitudeNorth":29.3,"LatitudeSouth":29.3,"Longitude":-81.866667,"Latitude":29.3,"Datasets":[{"MaxAge":5815,"DatabaseName":"North American Pollen Database","CollUnitHandle":"MUDLAKE","CollUnitName":null,"MinAge":0,"AgeOldest":null,"AgeYoungest":null,"DatasetType":"pollen","DatasetID":1776}]},{"SiteNotes":null,"SiteID":1741,"AgeYoungest":10195,"SiteName":"Nichols Brook Site","MaxAge":13735,"LongitudeWest":-78.478889,"MinAge":10195,"AgeOldest":13735,"LongitudeEast":-78.478889,"SiteDescription":"Stream-bank section along Nichols Brook. Physiography: Chaffee outwash plain.","LatitudeNorth":42.544722,"LatitudeSouth":42.544722,"Longitude":-78.478889,"Latitude":42.544722,"Datasets":[{"MaxAge":13735,"DatabaseName":"North American Pollen Database","CollUnitHandle":"NICHOLS1","CollUnitName":"Section 1","MinAge":10195,"AgeOldest":null,"AgeYoungest":null,"DatasetType":"pollen","DatasetID":1799},{"MaxAge":13418,"DatabaseName":"North American Pollen Database","CollUnitHandle":"NICHOLS2","CollUnitName":"Section 2","MinAge":10247,"AgeOldest":null,"AgeYoungest":null,"DatasetType":"pollen","DatasetID":3497}]},{"SiteNotes":null,"SiteID":1760,"AgeYoungest":1710,"SiteName":"Water Conservation Area 3B, Nuthouse Far Tail","MaxAge":3645,"LongitudeWest":-80.556667,"MinAge":1710,"AgeOldest":3645,"LongitudeEast":-80.556667,"SiteDescription":null,"LatitudeNorth":25.885556,"LatitudeSouth":25.885556,"Longitude":-80.556667,"Latitude":25.885556,"Datasets":[{"MaxAge":3645,"DatabaseName":"North American Pollen Database","CollUnitHandle":"NUTHSFT","CollUnitName":"98-04-21-2D","MinAge":1710,"AgeOldest":null,"AgeYoungest":null,"DatasetType":"pollen","DatasetID":1818}]},{"SiteNotes":null,"SiteID":1774,"AgeYoungest":97,"SiteName":"Lake Ontario, Rochester Basin","MaxAge":13854,"LongitudeWest":-76.9,"MinAge":97,"AgeOldest":13854,"LongitudeEast":-76.9,"SiteDescription":"Great lake. Physiography: lake.","LatitudeNorth":43.51,"LatitudeSouth":43.51,"Longitude":-76.9,"Latitude":43.51,"Datasets":[{"MaxAge":13854,"DatabaseName":"North American Pollen Database","CollUnitHandle":"ONT-ROCH","CollUnitName":null,"MinAge":97,"AgeOldest":null,"AgeYoungest":null,"DatasetType":"pollen","DatasetID":1833}]},{"SiteNotes":null,"SiteID":1775,"AgeYoungest":61,"SiteName":"Lake Ontario, Mississauga Basin","MaxAge":13777,"LongitudeWest":-78.15,"MinAge":61,"AgeOldest":13777,"LongitudeEast":-78.15,"SiteDescription":"Great Lake. Physiography: lake.","LatitudeNorth":43.556667,"LatitudeSouth":43.556667,"Longitude":-78.15,"Latitude":43.556667,"Datasets":[{"MaxAge":13777,"DatabaseName":"North American Pollen Database","CollUnitHandle":"ONTMIS1","CollUnitName":"68-0-17-5","MinAge":61,"AgeOldest":null,"AgeYoungest":null,"DatasetType":"pollen","DatasetID":1834}]},{"SiteNotes":null,"SiteID":1789,"AgeYoungest":658,"SiteName":"Panther Run Pond","MaxAge":9476,"LongitudeWest":-77.416667,"MinAge":658,"AgeOldest":9476,"LongitudeEast":-77.416667,"SiteDescription":null,"LatitudeNorth":40.8,"LatitudeSouth":40.8,"Longitude":-77.416667,"Latitude":40.8,"Datasets":[{"MaxAge":9476,"DatabaseName":"North American Pollen Database","CollUnitHandle":"PANTHER","CollUnitName":null,"MinAge":658,"AgeOldest":null,"AgeYoungest":null,"DatasetType":"pollen","DatasetID":1848}]},{"SiteNotes":null,"SiteID":1909,"AgeYoungest":50,"SiteName":"Chesapeake Bay, Parker Creek","MaxAge":1598,"LongitudeWest":-76.478611,"MinAge":50,"AgeOldest":1598,"LongitudeEast":-76.478611,"SiteDescription":"Estuary. Physiography: coastal plain. Surrounding vegetation: not applicable.","LatitudeNorth":38.547778,"LatitudeSouth":38.547778,"Longitude":-76.478611,"Latitude":38.547778,"Datasets":[{"MaxAge":1598,"DatabaseName":"North American Pollen Database","CollUnitHandle":"PRCK-1-2","CollUnitName":"PRCK-1-2","MinAge":50,"AgeOldest":null,"AgeYoungest":null,"DatasetType":"pollen","DatasetID":1975}]},{"SiteNotes":null,"SiteID":1916,"AgeYoungest":5,"SiteName":"Chesapeake Bay, Potomac River","MaxAge":3094,"LongitudeWest":-76.22,"MinAge":5,"AgeOldest":3094,"LongitudeEast":-76.22,"SiteDescription":"Estuary. Physiography: coastal plain. Surrounding vegetation: not applicable.","LatitudeNorth":38.026944,"LatitudeSouth":38.026944,"Longitude":-76.22,"Latitude":38.026944,"Datasets":[{"MaxAge":3094,"DatabaseName":"North American Pollen Database","CollUnitHandle":"PTMC-3P2","CollUnitName":"PTMC-3-P-2","MinAge":5,"AgeOldest":null,"AgeYoungest":null,"DatasetType":"pollen","DatasetID":1982}]},{"SiteNotes":null,"SiteID":1918,"AgeYoungest":175,"SiteName":"Chesapeake Bay, Patuxent River (2-P-5)","MaxAge":973,"LongitudeWest":-76.309722,"MinAge":175,"AgeOldest":973,"LongitudeEast":-76.309722,"SiteDescription":"Estuary. Physiography: coastal plain. Surrounding vegetation: not applicable.","LatitudeNorth":38.333333,"LatitudeSouth":38.333333,"Longitude":-76.309722,"Latitude":38.333333,"Datasets":[{"MaxAge":973,"DatabaseName":"North American Pollen Database","CollUnitHandle":"PTXT-2P5","CollUnitName":"PTXT-2-P-5","MinAge":175,"AgeOldest":null,"AgeYoungest":null,"DatasetType":"pollen","DatasetID":1984}]},{"SiteNotes":null,"SiteID":1936,"AgeYoungest":10642,"SiteName":"Quarles Pond","MaxAge":14940,"LongitudeWest":-79.072222,"MinAge":10642,"AgeOldest":14940,"LongitudeEast":-79.072222,"SiteDescription":"Solution hollow. Surrounding vegetation: Quercus, Pinus, Carya, Castanea.","LatitudeNorth":37.995833,"LatitudeSouth":37.995833,"Longitude":-79.072222,"Latitude":37.995833,"Datasets":[{"MaxAge":14940,"DatabaseName":"North American Pollen Database","CollUnitHandle":"QUARLES","CollUnitName":null,"MinAge":10642,"AgeOldest":null,"AgeYoungest":null,"DatasetType":"pollen","DatasetID":2003}]},{"SiteNotes":null,"SiteID":1939,"AgeYoungest":15916,"SiteName":"Quicksand Pond","MaxAge":19931,"LongitudeWest":-84.865278,"MinAge":15916,"AgeOldest":19931,"LongitudeEast":-84.865278,"SiteDescription":"Sinkhole pond. Physiography: ridge and valley province of Appal. Mtn.. Surrounding vegetation: Acer rubrum/Lyonia lucida/Nyssa biflora.","LatitudeNorth":34.326389,"LatitudeSouth":34.326389,"Longitude":-84.865278,"Latitude":34.326389,"Datasets":[{"MaxAge":19931,"DatabaseName":"North American Pollen Database","CollUnitHandle":"QUICKSND","CollUnitName":null,"MinAge":15916,"AgeOldest":null,"AgeYoungest":null,"DatasetType":"pollen","DatasetID":2006}]},{"SiteNotes":null,"SiteID":1959,"AgeYoungest":0,"SiteName":"Rayburn's Dome","MaxAge":5735,"LongitudeWest":-93.166667,"MinAge":0,"AgeOldest":5735,"LongitudeEast":-93.166667,"SiteDescription":null,"LatitudeNorth":32.466667,"LatitudeSouth":32.466667,"Longitude":-93.166667,"Latitude":32.466667,"Datasets":[{"MaxAge":5735,"DatabaseName":"North American Pollen Database","CollUnitHandle":"RAYBURN","CollUnitName":"boring A-9","MinAge":0,"AgeOldest":null,"AgeYoungest":null,"DatasetType":"pollen","DatasetID":2030}]},{"SiteNotes":null,"SiteID":1987,"AgeYoungest":15,"SiteName":"Chesapeake Bay, Rhode River","MaxAge":2714,"LongitudeWest":-76.394722,"MinAge":15,"AgeOldest":2714,"LongitudeEast":-76.394722,"SiteDescription":"Estuary. Physiography: coastal plain. Surrounding vegetation: not applicable.","LatitudeNorth":38.886389,"LatitudeSouth":38.886389,"Longitude":-76.394722,"Latitude":38.886389,"Datasets":[{"MaxAge":2714,"DatabaseName":"North American Pollen Database","CollUnitHandle":"RHODERVR","CollUnitName":"MD99-2209","MinAge":15,"AgeOldest":null,"AgeYoungest":null,"DatasetType":"pollen","DatasetID":2061}]},{"SiteNotes":null,"SiteID":2194,"AgeYoungest":9903,"SiteName":"Rogers Lake","MaxAge":17830,"LongitudeWest":-72.3027,"MinAge":9903,"AgeOldest":17830,"LongitudeEast":-72.2956,"SiteDescription":"Two basin lake. Physiography: irregular topography. Surrounding vegetation: oak, maple, hickory, birch, ash.","LatitudeNorth":41.3559,"LatitudeSouth":41.3491,"Longitude":-72.29915,"Latitude":41.3525,"Datasets":[{"MaxAge":17830,"DatabaseName":"North American Pollen Database","CollUnitHandle":"ROGERSLK","CollUnitName":"core ROG-2","MinAge":9903,"AgeOldest":null,"AgeYoungest":null,"DatasetType":"pollen","DatasetID":2270}]},{"SiteNotes":null,"SiteID":2241,"AgeYoungest":6451,"SiteName":"Sagehen Marsh","MaxAge":6518,"LongitudeWest":-108.503889,"MinAge":6451,"AgeOldest":6518,"LongitudeEast":-108.503889,"SiteDescription":"Small marsh. Physiography: Rocky Mountains. Surrounding vegetation: Artemisia/Pinus/Juniperus/Quercus.","LatitudeNorth":37.473889,"LatitudeSouth":37.473889,"Longitude":-108.503889,"Latitude":37.473889,"Datasets":[{"MaxAge":6518,"DatabaseName":"North American Pollen Database","CollUnitHandle":"SAGEHEN3","CollUnitName":"core III","MinAge":6451,"AgeOldest":null,"AgeYoungest":null,"DatasetType":"pollen","DatasetID":3609},{"MaxAge":1273,"DatabaseName":"North American Pollen Database","CollUnitHandle":"SAGEHEN2","CollUnitName":"core II","MinAge":1273,"AgeOldest":null,"AgeYoungest":null,"DatasetType":"pollen","DatasetID":3608},{"MaxAge":311,"DatabaseName":"North American Pollen Database","CollUnitHandle":"SAGEHEN1","CollUnitName":"core I","MinAge":133,"AgeOldest":null,"AgeYoungest":null,"DatasetType":"pollen","DatasetID":2320}]},{"SiteNotes":"Surrounding vegetation: Atriplex-Sarcobatus grassland.","SiteID":2260,"AgeYoungest":8454,"SiteName":"San Agustin Plains","MaxAge":19922,"LongitudeWest":-108.25,"MinAge":8454,"AgeOldest":19922,"LongitudeEast":-108.25,"SiteDescription":"Playa lake. Physiography: Datil-Mogollon volcanic plateau. Surrounding vegetation: pinyon-juniper woodland.","LatitudeNorth":33.866667,"LatitudeSouth":33.866667,"Longitude":-108.25,"Latitude":33.866667,"Datasets":[{"MaxAge":19922,"DatabaseName":"North American Pollen Database","CollUnitHandle":"SAPBHM","CollUnitName":"Core BHM","MinAge":8454,"AgeOldest":null,"AgeYoungest":null,"DatasetType":"pollen","DatasetID":3611},{"MaxAge":19953,"DatabaseName":"North American Pollen Database","CollUnitHandle":"SAPAUG","CollUnitName":"SAP-auger","MinAge":9891,"AgeOldest":null,"AgeYoungest":null,"DatasetType":"pollen","DatasetID":2340},{"MaxAge":14948,"DatabaseName":"North American Pollen Database","CollUnitHandle":"SAPPIT","CollUnitName":"SAP-pit","MinAge":6363,"AgeOldest":null,"AgeYoungest":null,"DatasetType":"pollen","DatasetID":3612}]},{"SiteNotes":null,"SiteID":2269,"AgeYoungest":49,"SiteName":"Scott Lake","MaxAge":4960,"LongitudeWest":-81.95,"MinAge":49,"AgeOldest":4960,"LongitudeEast":-81.95,"SiteDescription":"Sinkhole lake, coastal plain. Physiography: low rolling. Surrounding vegetation: Quercus/Persea/Carya.","LatitudeNorth":27.966667,"LatitudeSouth":27.966667,"Longitude":-81.95,"Latitude":27.966667,"Datasets":[{"MaxAge":4960,"DatabaseName":"North American Pollen Database","CollUnitHandle":"SCOTTLK","CollUnitName":null,"MinAge":49,"AgeOldest":null,"AgeYoungest":null,"DatasetType":"pollen","DatasetID":2349}]},{"SiteNotes":"Site called Sedvy Pond by McAndrews.","SiteID":2273,"AgeYoungest":78,"SiteName":"Sedivy Lake","MaxAge":124,"LongitudeWest":-95.833333,"MinAge":78,"AgeOldest":124,"LongitudeEast":-95.833333,"SiteDescription":"Kettle lake. Physiography: ground moraine.","LatitudeNorth":47.208889,"LatitudeSouth":47.208889,"Longitude":-95.833333,"Latitude":47.208889,"Datasets":[{"MaxAge":124,"DatabaseName":"North American Pollen Database","CollUnitHandle":"SEDIVY","CollUnitName":null,"MinAge":78,"AgeOldest":null,"AgeYoungest":null,"DatasetType":"pollen","DatasetID":2354}]},{"SiteNotes":null,"SiteID":2274,"AgeYoungest":1467,"SiteName":"Seidel","MaxAge":10722,"LongitudeWest":-87.515556,"MinAge":1467,"AgeOldest":10722,"LongitudeEast":-87.515556,"SiteDescription":"Lake in enclosed hollow. Physiography: ground moraine of the Valders substage. Surrounding vegetation: agricultural/Alnus/Cornus/Betula/Larix.","LatitudeNorth":44.45,"LatitudeSouth":44.45,"Longitude":-87.515556,"Latitude":44.45,"Datasets":[{"MaxAge":10722,"DatabaseName":"North American Pollen Database","CollUnitHandle":"SEIDEL02","CollUnitName":null,"MinAge":1467,"AgeOldest":null,"AgeYoungest":null,"DatasetType":"pollen","DatasetID":3620}]},{"SiteNotes":null,"SiteID":2292,"AgeYoungest":14263,"SiteName":"Shady Valley Bog","MaxAge":14263,"LongitudeWest":-81.933333,"MinAge":14263,"AgeOldest":14263,"LongitudeEast":-81.933333,"SiteDescription":null,"LatitudeNorth":36.525,"LatitudeSouth":36.525,"Longitude":-81.933333,"Latitude":36.525,"Datasets":[{"MaxAge":14263,"DatabaseName":"North American Pollen Database","CollUnitHandle":"SHADYVAL","CollUnitName":null,"MinAge":14263,"AgeOldest":null,"AgeYoungest":null,"DatasetType":"pollen","DatasetID":2374}]},{"SiteNotes":"Lat-Long values are estimates.","SiteID":2298,"AgeYoungest":25,"SiteName":"Sheley Pond","MaxAge":744,"LongitudeWest":-81.636944,"MinAge":25,"AgeOldest":744,"LongitudeEast":-81.636944,"SiteDescription":"Recently drained pond. Surrounding vegetation: Quercus/Pinus.","LatitudeNorth":31.080833,"LatitudeSouth":31.080833,"Longitude":-81.636944,"Latitude":31.080833,"Datasets":[{"MaxAge":744,"DatabaseName":"North American Pollen Database","CollUnitHandle":"SHELEY","CollUnitName":null,"MinAge":25,"AgeOldest":null,"AgeYoungest":null,"DatasetType":"pollen","DatasetID":2380}]},{"SiteNotes":null,"SiteID":2299,"AgeYoungest":0,"SiteName":"Sherd Lake","MaxAge":13619,"LongitudeWest":-107.01325,"MinAge":0,"AgeOldest":13619,"LongitudeEast":-107.01149,"SiteDescription":"Moraine dammed lake. Physiography: Bighorn Mountains. Surrounding vegetation: lodgepole pine forest.","LatitudeNorth":44.27046,"LatitudeSouth":44.26894,"Longitude":-107.01237,"Latitude":44.2697,"Datasets":[{"MaxAge":13619,"DatabaseName":"North American Pollen Database","CollUnitHandle":"SHERD","CollUnitName":"Core #2","MinAge":0,"AgeOldest":null,"AgeYoungest":null,"DatasetType":"pollen","DatasetID":2381}]},{"SiteNotes":null,"SiteID":2303,"AgeYoungest":11506,"SiteName":"Silver Lake","MaxAge":11506,"LongitudeWest":-83.81531,"MinAge":11506,"AgeOldest":11506,"LongitudeEast":-83.80972,"SiteDescription":"Silver Lake  is a compound kettle located on the Central Lowland Till Plain, and was formed when the Miami Sublobe of the Lake Erie Lobe of the Laurentide Ice Sheet retreated from what is now the Farmersville Moraine. Surrounding vegetation: agriculture, oak, hickory, black cherry.","LatitudeNorth":40.35744,"LatitudeSouth":40.35123,"Longitude":-83.812515,"Latitude":40.354335,"Datasets":[{"MaxAge":11506,"DatabaseName":"North American Pollen Database","CollUnitHandle":"SILVEROH","CollUnitName":"core SL-1","MinAge":11506,"AgeOldest":null,"AgeYoungest":null,"DatasetType":"pollen","DatasetID":2385}]},{"SiteNotes":null,"SiteID":2500,"AgeYoungest":14,"SiteName":"South Stanchfield Lake","MaxAge":131,"LongitudeWest":-93.466667,"MinAge":14,"AgeOldest":131,"LongitudeEast":-93.466667,"SiteDescription":"Kettle lake. Physiography: McGrath Till Plain, gently rolling.","LatitudeNorth":45.725,"LatitudeSouth":45.725,"Longitude":-93.466667,"Latitude":45.725,"Datasets":[{"MaxAge":131,"DatabaseName":"North American Pollen Database","CollUnitHandle":"SOSTANCH","CollUnitName":null,"MinAge":14,"AgeOldest":null,"AgeYoungest":null,"DatasetType":"pollen","DatasetID":2584}]},{"SiteNotes":null,"SiteID":2503,"AgeYoungest":4492,"SiteName":"Splains Gulch","MaxAge":14082,"LongitudeWest":-107.068889,"MinAge":4492,"AgeOldest":14082,"LongitudeEast":-107.068889,"SiteDescription":"Sedge peat fen bisected by small stream. Physiography:  small basin in glaciated mountains. Surrounding vegetation: Picea engelmannii-Abies lasiocarpa.","LatitudeNorth":38.832778,"LatitudeSouth":38.832778,"Longitude":-107.068889,"Latitude":38.832778,"Datasets":[{"MaxAge":14082,"DatabaseName":"North American Pollen Database","CollUnitHandle":"SPLAINSG","CollUnitName":null,"MinAge":4492,"AgeOldest":null,"AgeYoungest":null,"DatasetType":"pollen","DatasetID":2587}]},{"SiteNotes":null,"SiteID":2504,"AgeYoungest":3430,"SiteName":"Splains Lake","MaxAge":10823,"LongitudeWest":-107.077778,"MinAge":3430,"AgeOldest":10823,"LongitudeEast":-107.077778,"SiteDescription":"Montane glacial lake (water 1.7 m deep). Physiography: small basin in glaciated mountains. Surrounding vegetation: Picea engelmannii-Abies lasiocarpa.","LatitudeNorth":38.8325,"LatitudeSouth":38.8325,"Longitude":-107.077778,"Latitude":38.8325,"Datasets":[{"MaxAge":10823,"DatabaseName":"North American Pollen Database","CollUnitHandle":"SPLAINSL","CollUnitName":null,"MinAge":3430,"AgeOldest":null,"AgeYoungest":null,"DatasetType":"pollen","DatasetID":2588}]},{"SiteNotes":null,"SiteID":2513,"AgeYoungest":20,"SiteName":"Starkweather Pond","MaxAge":12866,"LongitudeWest":-119.0675,"MinAge":20,"AgeOldest":12866,"LongitudeEast":-119.0675,"SiteDescription":"Glacial scour lake. Physiography: Sierra Nevada mountains. Surrounding vegetation: lodgepole/white pine, red fir.","LatitudeNorth":37.6625,"LatitudeSouth":37.6625,"Longitude":-119.0675,"Latitude":37.6625,"Datasets":[{"MaxAge":12866,"DatabaseName":"North American Pollen Database","CollUnitHandle":"STARKWEA","CollUnitName":null,"MinAge":20,"AgeOldest":null,"AgeYoungest":null,"DatasetType":"pollen","DatasetID":2599}]},{"SiteNotes":null,"SiteID":2518,"AgeYoungest":112,"SiteName":"Stone Lake","MaxAge":425,"LongitudeWest":-93.522222,"MinAge":112,"AgeOldest":425,"LongitudeEast":-93.522222,"SiteDescription":"Kettle lake. Physiography: Anoka Sand Plain, undulating.","LatitudeNorth":45.4,"LatitudeSouth":45.4,"Longitude":-93.522222,"Latitude":45.4,"Datasets":[{"MaxAge":425,"DatabaseName":"North American Pollen Database","CollUnitHandle":"STONE","CollUnitName":null,"MinAge":112,"AgeOldest":null,"AgeYoungest":null,"DatasetType":"pollen","DatasetID":2605}]},{"SiteNotes":null,"SiteID":2529,"AgeYoungest":65,"SiteName":"Swamp Lake","MaxAge":19003,"LongitudeWest":-119.816667,"MinAge":65,"AgeOldest":19003,"LongitudeEast":-119.816667,"SiteDescription":"Small lake. Physiography: Sierra Nevada Mountain Range. Surrounding vegetation: Pinus ponderosa, Pinus jeffreyi.","LatitudeNorth":37.95,"LatitudeSouth":37.95,"Longitude":-119.816667,"Latitude":37.95,"Datasets":[{"MaxAge":19003,"DatabaseName":"North American Pollen Database","CollUnitHandle":"SWAMPLK","CollUnitName":"SLY","MinAge":65,"AgeOldest":null,"AgeYoungest":null,"DatasetType":"pollen","DatasetID":2619}]},{"SiteNotes":null,"SiteID":2534,"AgeYoungest":180,"SiteName":"Tamarack Creek","MaxAge":3089,"LongitudeWest":-91.45,"MinAge":180,"AgeOldest":3089,"LongitudeEast":-91.45,"SiteDescription":null,"LatitudeNorth":44.15,"LatitudeSouth":44.15,"Longitude":-91.45,"Latitude":44.15,"Datasets":[{"MaxAge":3089,"DatabaseName":"North American Pollen Database","CollUnitHandle":"TAMARACK","CollUnitName":null,"MinAge":180,"AgeOldest":null,"AgeYoungest":null,"DatasetType":"pollen","DatasetID":2624}]},{"SiteNotes":null,"SiteID":2536,"AgeYoungest":9631,"SiteName":"Tannersville Bog","MaxAge":11205,"LongitudeWest":-75.266667,"MinAge":9631,"AgeOldest":11205,"LongitudeEast":-75.266667,"SiteDescription":null,"LatitudeNorth":41.033333,"LatitudeSouth":41.033333,"Longitude":-75.266667,"Latitude":41.033333,"Datasets":[{"MaxAge":11205,"DatabaseName":"North American Pollen Database","CollUnitHandle":"TANBOG07","CollUnitName":"TB07-1","MinAge":9631,"AgeOldest":11704,"AgeYoungest":9172,"DatasetType":"pollen","DatasetID":15866},{"MaxAge":19411,"DatabaseName":"North American Pollen Database","CollUnitHandle":"TANNERSV","CollUnitName":null,"MinAge":9722,"AgeOldest":null,"AgeYoungest":null,"DatasetType":"pollen","DatasetID":2626}]},{"SiteNotes":"Taunton Quadrangle. Between Williams St. and Taunton River, near Taunton Water Works.","SiteID":2538,"AgeYoungest":9989,"SiteName":"Williams Street Bog","MaxAge":19098,"LongitudeWest":-71.066667,"MinAge":9989,"AgeOldest":19098,"LongitudeEast":-71.066667,"SiteDescription":"Bog in kettlehole. Surrounding vegetation: urban.","LatitudeNorth":41.9,"LatitudeSouth":41.9,"Longitude":-71.066667,"Latitude":41.9,"Datasets":[{"MaxAge":19098,"DatabaseName":"North American Pollen Database","CollUnitHandle":"TAUNTON","CollUnitName":null,"MinAge":9989,"AgeOldest":null,"AgeYoungest":null,"DatasetType":"pollen","DatasetID":2628}]},{"SiteNotes":"Designated as Site 7, Everglades National Park, in Willard et al. 2001.","SiteID":2540,"AgeYoungest":20,"SiteName":"Taylor Creek Site 2","MaxAge":504,"LongitudeWest":-80.643889,"MinAge":20,"AgeOldest":504,"LongitudeEast":-80.643889,"SiteDescription":"Dwarf Rhizophora/wet prairie. Physiography: coastal plain. Surrounding vegetation: dwarf Rhizophora scrub forest.","LatitudeNorth":25.205556,"LatitudeSouth":25.205556,"Longitude":-80.643889,"Latitude":25.205556,"Datasets":[{"MaxAge":504,"DatabaseName":"North American Pollen Database","CollUnitHandle":"TAYCRK2A","CollUnitName":"TC2-A","MinAge":20,"AgeOldest":null,"AgeYoungest":null,"DatasetType":"pollen","DatasetID":2630},{"MaxAge":1937,"DatabaseName":"North American Pollen Database","CollUnitHandle":"TAYCRK2B","CollUnitName":"TC2-B","MinAge":468,"AgeOldest":null,"AgeYoungest":null,"DatasetType":"pollen","DatasetID":3782}]},{"SiteNotes":"Designated as Site 6, Taylor Slough, in Willard et al. 2001.","SiteID":2542,"AgeYoungest":154,"SiteName":"Taylor Slough Site 15","MaxAge":639,"LongitudeWest":-80.687222,"MinAge":154,"AgeOldest":639,"LongitudeEast":-80.687222,"SiteDescription":"Cladium marsh with Rhizophora. Physiography: coastal plain. Surrounding vegetation: Cladium marsh.","LatitudeNorth":25.201944,"LatitudeSouth":25.201944,"Longitude":-80.687222,"Latitude":25.201944,"Datasets":[{"MaxAge":639,"DatabaseName":"North American Pollen Database","CollUnitHandle":"TAYLSL15","CollUnitName":"96-05-24-22","MinAge":154,"AgeOldest":null,"AgeYoungest":null,"DatasetType":"pollen","DatasetID":2632}]},{"SiteNotes":"Designated as Site 5, Taylor Slough, in Willard et al. 2001.","SiteID":2543,"AgeYoungest":20,"SiteName":"Taylor Slough Site 7","MaxAge":3967,"LongitudeWest":-80.646389,"MinAge":20,"AgeOldest":3967,"LongitudeEast":-80.646389,"SiteDescription":"(short) Cladium marsh with Rhizophora. Physiography: coastal plain. Surrounding vegetation: Cladium marsh.","LatitudeNorth":25.287222,"LatitudeSouth":25.287222,"Longitude":-80.646389,"Latitude":25.287222,"Datasets":[{"MaxAge":3967,"DatabaseName":"North American Pollen Database","CollUnitHandle":"TAYLSL7","CollUnitName":"96-05-17-6","MinAge":20,"AgeOldest":null,"AgeYoungest":null,"DatasetType":"pollen","DatasetID":2633}]},{"SiteNotes":null,"SiteID":2553,"AgeYoungest":18,"SiteName":"Tioga Pass Pond","MaxAge":11313,"LongitudeWest":-119.258333,"MinAge":18,"AgeOldest":11313,"LongitudeEast":-119.258333,"SiteDescription":"Kettle pond. Physiography: Sierra Nevada mountains. Surrounding vegetation: Pinus contorta, P. albicaulis.","LatitudeNorth":37.908333,"LatitudeSouth":37.908333,"Longitude":-119.258333,"Latitude":37.908333,"Datasets":[{"MaxAge":11313,"DatabaseName":"North American Pollen Database","CollUnitHandle":"TIOGA","CollUnitName":null,"MinAge":18,"AgeOldest":null,"AgeYoungest":null,"DatasetType":"pollen","DatasetID":2644}]},{"SiteNotes":null,"SiteID":2557,"AgeYoungest":247,"SiteName":"Toenjes Lake","MaxAge":247,"LongitudeWest":-93.98339,"MinAge":247,"AgeOldest":247,"LongitudeEast":-93.98004,"SiteDescription":"Kettle lake. Physiography: Mississippi Valley Outwash, level.","LatitudeNorth":45.40997,"LatitudeSouth":45.40793,"Longitude":-93.981715,"Latitude":45.40895,"Datasets":[{"MaxAge":247,"DatabaseName":"North American Pollen Database","CollUnitHandle":"TOENJES","CollUnitName":null,"MinAge":247,"AgeOldest":null,"AgeYoungest":null,"DatasetType":"pollen","DatasetID":2648}]},{"SiteNotes":null,"SiteID":2785,"AgeYoungest":762,"SiteName":"Twin Lakes","MaxAge":11563,"LongitudeWest":-108.1025,"MinAge":762,"AgeOldest":11563,"LongitudeEast":-108.1025,"SiteDescription":"Depression in headward end of landslide. Physiography: La Plata Mountains. Surrounding vegetation: engelmann spruce/subalpine fir.","LatitudeNorth":37.469444,"LatitudeSouth":37.469444,"Longitude":-108.1025,"Latitude":37.469444,"Datasets":[{"MaxAge":11563,"DatabaseName":"North American Pollen Database","CollUnitHandle":"TWINLAKE","CollUnitName":null,"MinAge":762,"AgeOldest":null,"AgeYoungest":null,"DatasetType":"pollen","DatasetID":2880}]},{"SiteNotes":"Site name is an informal name.","SiteID":2800,"AgeYoungest":706,"SiteName":"Utricularia Lake","MaxAge":19998,"LongitudeWest":-108.808333,"MinAge":706,"AgeOldest":19998,"LongitudeEast":-108.808333,"SiteDescription":"Sandstone depression formed by piping. Physiography: crest of the Chuska Mountains. Surrounding vegetation: Pinus ponderosa forest.","LatitudeNorth":35.968889,"LatitudeSouth":35.968889,"Longitude":-108.808333,"Latitude":35.968889,"Datasets":[{"MaxAge":19998,"DatabaseName":"North American Pollen Database","CollUnitHandle":"UTRICULA","CollUnitName":null,"MinAge":706,"AgeOldest":null,"AgeYoungest":null,"DatasetType":"pollen","DatasetID":2897}]},{"SiteNotes":null,"SiteID":2814,"AgeYoungest":12,"SiteName":"Vestaburg Bog","MaxAge":14305,"LongitudeWest":-84.883333,"MinAge":12,"AgeOldest":14305,"LongitudeEast":-84.883333,"SiteDescription":null,"LatitudeNorth":43.416667,"LatitudeSouth":43.416667,"Longitude":-84.883333,"Latitude":43.416667,"Datasets":[{"MaxAge":14305,"DatabaseName":"North American Pollen Database","CollUnitHandle":"VESTABRG","CollUnitName":"core I","MinAge":12,"AgeOldest":null,"AgeYoungest":null,"DatasetType":"pollen","DatasetID":3831}]},{"SiteNotes":null,"SiteID":2839,"AgeYoungest":0,"SiteName":"White Pond","MaxAge":19794,"LongitudeWest":-80.77947,"MinAge":0,"AgeOldest":19794,"LongitudeEast":-80.77285,"SiteDescription":null,"LatitudeNorth":34.17059,"LatitudeSouth":34.16459,"Longitude":-80.77616,"Latitude":34.16759,"Datasets":[{"MaxAge":19794,"DatabaseName":"North American Pollen Database","CollUnitHandle":"WHITEPND","CollUnitName":null,"MinAge":0,"AgeOldest":null,"AgeYoungest":null,"DatasetType":"pollen","DatasetID":3840}]},{"SiteNotes":"Designated as Site 2, Water Conservation 2A, in Willard et al. 2001; as Site F1 in both Willard 1997, and Willard and Weimer 1997.","SiteID":2846,"AgeYoungest":46,"SiteName":"Water Conservation Area 2A, Site 2 (Site F1)","MaxAge":2151,"LongitudeWest":-80.370556,"MinAge":46,"AgeOldest":2151,"LongitudeEast":-80.370556,"SiteDescription":"Typha marsh. Physiography: coastal plain. Surrounding vegetation: Typha marsh.","LatitudeNorth":26.359722,"LatitudeSouth":26.359722,"Longitude":-80.370556,"Latitude":26.359722,"Datasets":[{"MaxAge":2151,"DatabaseName":"North American Pollen Database","CollUnitHandle":"WCA2AF1","CollUnitName":"95-04-26-1","MinAge":46,"AgeOldest":null,"AgeYoungest":null,"DatasetType":"pollen","DatasetID":2943}]},{"SiteNotes":"Designated as Site 3, Water Conservation Area 2A, in Willard et al. 2001; as Site U3 in both Willard 1997, and Willard and Weimer 1997.","SiteID":2847,"AgeYoungest":33,"SiteName":"Water Conservation Area 2A, Site 3 (Site U3)","MaxAge":2091,"LongitudeWest":-80.411389,"MinAge":33,"AgeOldest":2091,"LongitudeEast":-80.411389,"SiteDescription":"Cladium marsh. Physiography: coastal plain. Surrounding vegetation: Cladium marsh.","LatitudeNorth":26.2875,"LatitudeSouth":26.2875,"Longitude":-80.411389,"Latitude":26.2875,"Datasets":[{"MaxAge":2091,"DatabaseName":"North American Pollen Database","CollUnitHandle":"WCA2AU3","CollUnitName":"95-04-25-1","MinAge":33,"AgeOldest":null,"AgeYoungest":null,"DatasetType":"pollen","DatasetID":2944}]},{"SiteNotes":"Designated as Site 4, Water Conservation Area 3A, in Willard et al. 2001; as site CA315 (AAS) in Willard and Weimer 1997.","SiteID":2848,"AgeYoungest":3,"SiteName":"Water Conservation Area 3A, Site 4 (CA315 (AAS))","MaxAge":2749,"LongitudeWest":-80.6688,"MinAge":3,"AgeOldest":2749,"LongitudeEast":-80.6688,"SiteDescription":"Cladium marsh with Nymphaea. Physiography: coastal plain. Surrounding vegetation: Cladium marsh.","LatitudeNorth":25.974,"LatitudeSouth":25.974,"Longitude":-80.6688,"Latitude":25.974,"Datasets":[{"MaxAge":2749,"DatabaseName":"North American Pollen Database","CollUnitHandle":"WCA3A15","CollUnitName":"95-04-27-1","MinAge":3,"AgeOldest":null,"AgeYoungest":null,"DatasetType":"pollen","DatasetID":2945}]},{"SiteNotes":null,"SiteID":2849,"AgeYoungest":10,"SiteName":"Weber Lake","MaxAge":11188,"LongitudeWest":-91.66,"MinAge":10,"AgeOldest":11188,"LongitudeEast":-91.66,"SiteDescription":null,"LatitudeNorth":47.471667,"LatitudeSouth":47.471667,"Longitude":-91.66,"Latitude":47.471667,"Datasets":[{"MaxAge":11188,"DatabaseName":"North American Pollen Database","CollUnitHandle":"WEBERLK","CollUnitName":"cores S:1+C:1 COHMAP","MinAge":10,"AgeOldest":null,"AgeYoungest":null,"DatasetType":"pollen","DatasetID":3837}]},{"SiteNotes":"This site no longer exists.","SiteID":2850,"AgeYoungest":12943,"SiteName":"Wells Mastodon Site","MaxAge":13299,"LongitudeWest":-86.433333,"MinAge":12943,"AgeOldest":13299,"LongitudeEast":-86.433333,"SiteDescription":"Drainage ditch/Mastodon excavation. Physiography: valley train and outwash/gently rolling. Surrounding vegetation: cultivated, drainage ditch.","LatitudeNorth":41.083333,"LatitudeSouth":41.083333,"Longitude":-86.433333,"Latitude":41.083333,"Datasets":[{"MaxAge":13299,"DatabaseName":"North American Pollen Database","CollUnitHandle":"WELLSMST","CollUnitName":null,"MinAge":12943,"AgeOldest":null,"AgeYoungest":null,"DatasetType":"pollen","DatasetID":2947}]},{"SiteNotes":null,"SiteID":2853,"AgeYoungest":67,"SiteName":"Whiskey Lake","MaxAge":18540,"LongitudeWest":-108.810833,"MinAge":67,"AgeOldest":18540,"LongitudeEast":-108.810833,"SiteDescription":"Sandstone depression formed by piping. Physiography: crest of the Chuska Mountains. Surrounding vegetation: Pinus ponderosa forest.","LatitudeNorth":35.981944,"LatitudeSouth":35.981944,"Longitude":-108.810833,"Latitude":35.981944,"Datasets":[{"MaxAge":18540,"DatabaseName":"North American Pollen Database","CollUnitHandle":"WHISKEY","CollUnitName":null,"MinAge":67,"AgeOldest":null,"AgeYoungest":null,"DatasetType":"pollen","DatasetID":2950}]},{"SiteNotes":null,"SiteID":2864,"AgeYoungest":10740,"SiteName":"Wintergreen Lake","MaxAge":12663,"LongitudeWest":-85.383333,"MinAge":10740,"AgeOldest":12663,"LongitudeEast":-85.383333,"SiteDescription":null,"LatitudeNorth":42.4,"LatitudeSouth":42.4,"Longitude":-85.383333,"Latitude":42.4,"Datasets":[{"MaxAge":12663,"DatabaseName":"North American Pollen Database","CollUnitHandle":"WINTERGR","CollUnitName":null,"MinAge":10740,"AgeOldest":null,"AgeYoungest":null,"DatasetType":"pollen","DatasetID":2961}]},{"SiteNotes":null,"SiteID":2938,"AgeYoungest":4694,"SiteName":"Woodworth Pond","MaxAge":8490,"LongitudeWest":-99.233333,"MinAge":4694,"AgeOldest":8490,"LongitudeEast":-99.233333,"SiteDescription":"Prairie pothole, permanent water. Physiography: Missouri Coteau, rolling.","LatitudeNorth":47.15,"LatitudeSouth":47.15,"Longitude":-99.233333,"Latitude":47.15,"Datasets":[{"MaxAge":8490,"DatabaseName":"North American Pollen Database","CollUnitHandle":"WOODWORT","CollUnitName":null,"MinAge":4694,"AgeOldest":null,"AgeYoungest":null,"DatasetType":"pollen","DatasetID":3036}]},{"SiteNotes":null,"SiteID":2948,"AgeYoungest":0,"SiteName":"Yellow Dog Pond","MaxAge":10273,"LongitudeWest":-87.95,"MinAge":0,"AgeOldest":10273,"LongitudeEast":-87.95,"SiteDescription":null,"LatitudeNorth":46.75,"LatitudeSouth":46.75,"Longitude":-87.95,"Latitude":46.75,"Datasets":[{"MaxAge":10273,"DatabaseName":"North American Pollen Database","CollUnitHandle":"YELLOWDG","CollUnitName":null,"MinAge":0,"AgeOldest":null,"AgeYoungest":null,"DatasetType":"pollen","DatasetID":3047}]},{"SiteNotes":null,"SiteID":2954,"AgeYoungest":11560,"SiteName":"Pretty Lake","MaxAge":12211,"LongitudeWest":-85.25,"MinAge":11560,"AgeOldest":12211,"LongitudeEast":-85.25,"SiteDescription":"Kettle lake. Physiography: broad (Dekalb)lowland of moderate relief. Surrounding vegetation: cultivation/Quercus/Carya/Acer/Populus.","LatitudeNorth":41.583056,"LatitudeSouth":41.583056,"Longitude":-85.25,"Latitude":41.583056,"Datasets":[{"MaxAge":12211,"DatabaseName":"North American Pollen Database","CollUnitHandle":"PRETTYLK","CollUnitName":"core A","MinAge":11560,"AgeOldest":null,"AgeYoungest":null,"DatasetType":"pollen","DatasetID":3563}]},{"SiteNotes":null,"SiteID":2956,"AgeYoungest":138,"SiteName":"Canyon Lake","MaxAge":11320,"LongitudeWest":-87.921389,"MinAge":138,"AgeOldest":11320,"LongitudeEast":-87.921389,"SiteDescription":null,"LatitudeNorth":46.833333,"LatitudeSouth":46.833333,"Longitude":-87.921389,"Latitude":46.833333,"Datasets":[{"MaxAge":11320,"DatabaseName":"North American Pollen Database","CollUnitHandle":"CANYONMI","CollUnitName":null,"MinAge":138,"AgeOldest":12860,"AgeYoungest":7,"DatasetType":"pollen","DatasetID":15682}]},{"SiteNotes":null,"SiteID":2957,"AgeYoungest":0,"SiteName":"Como Lake","MaxAge":13594,"LongitudeWest":-105.5,"MinAge":0,"AgeOldest":13594,"LongitudeEast":-105.5,"SiteDescription":"Glacial scour lake. Physiography: Sangre de Cristo Mountains. Surrounding vegetation: open Picea, Abies, Pinus aristata.","LatitudeNorth":37.55,"LatitudeSouth":37.55,"Longitude":-105.5,"Latitude":37.55,"Datasets":[{"MaxAge":13594,"DatabaseName":"North American Pollen Database","CollUnitHandle":"COMOLAKE","CollUnitName":null,"MinAge":0,"AgeOldest":null,"AgeYoungest":null,"DatasetType":"pollen","DatasetID":3056}]},{"SiteNotes":null,"SiteID":5192,"AgeYoungest":8939,"SiteName":"Little Salt Spring","MaxAge":10040,"LongitudeWest":-82.23333333333333,"MinAge":8939,"AgeOldest":10040,"LongitudeEast":-82.23333333333333,"SiteDescription":"Karstic sinkhole. Physiography: Buried Tampa limestone. Surrounding vegetation: Sabal palm, red bay, oak, holly, fern.","LatitudeNorth":27.075,"LatitudeSouth":27.075,"Longitude":-82.233333,"Latitude":27.075,"Datasets":[{"MaxAge":10040,"DatabaseName":"North American Pollen Database","CollUnitHandle":"GDF141","CollUnitName":"GDF141","MinAge":8939,"AgeOldest":10391,"AgeYoungest":8470,"DatasetType":"pollen","DatasetID":17285}]},{"SiteNotes":null,"SiteID":5803,"AgeYoungest":9126,"SiteName":"Hiscock Site","MaxAge":12003,"LongitudeWest":-78,"MinAge":9126,"AgeOldest":12003,"LongitudeEast":-78,"SiteDescription":"Spring basin. Physiography: Drumlin field. Surrounding vegetation: Typha angustifolia, chenopodium rubrum.","LatitudeNorth":43,"LatitudeSouth":43,"Longitude":-78,"Latitude":43,"Datasets":[{"MaxAge":12003,"DatabaseName":"North American Pollen Database","CollUnitHandle":"HISCOCKP","CollUnitName":null,"MinAge":9126,"AgeOldest":12619,"AgeYoungest":8916,"DatasetType":"pollen","DatasetID":15929}]},{"SiteNotes":null,"SiteID":6510,"AgeYoungest":4836,"SiteName":"Hemlock Hollow","MaxAge":10683,"LongitudeWest":-72.181,"MinAge":4836,"AgeOldest":10683,"LongitudeEast":-72.175,"SiteDescription":"A small hollow in the middle of a Tsuga stand. Surrounding vegetation: Ilex verticillata and Vaccinium corymbosum in the shallow center. Sedges, grasses, Osmunda cinnamomea, and Sphagnum around the margins.","LatitudeNorth":42.542,"LatitudeSouth":42.533,"Longitude":-72.178,"Latitude":42.5375,"Datasets":[{"MaxAge":10683,"DatabaseName":"North American Pollen Database","CollUnitHandle":"HEMLKHOL","CollUnitName":null,"MinAge":4836,"AgeOldest":null,"AgeYoungest":null,"DatasetType":"pollen","DatasetID":10972}]},{"SiteNotes":null,"SiteID":9942,"AgeYoungest":13207,"SiteName":"Yahoo Lake","MaxAge":13402,"LongitudeWest":-124.02015,"MinAge":13207,"AgeOldest":13402,"LongitudeEast":-124.01702,"SiteDescription":"Yahoo Lake was formed by a small cirque glacier. Surrounding vegetation: The lake is located within the Pacific Silver Fir forest zone. North facing slopes are dominated by Abies amabilis and Tsuga heterophylla, while Thuja plicata is limited to flat areas or south aspects. The lake is near the upper elevation limits of Tsuga heterophylla and Thuja plicata.","LatitudeNorth":47.67813,"LatitudeSouth":47.6757,"Longitude":-124.018585,"Latitude":47.676915,"Datasets":[{"MaxAge":13402,"DatabaseName":"North American Pollen Database","CollUnitHandle":"YAHOO","CollUnitName":"YAIV","MinAge":13207,"AgeOldest":13818,"AgeYoungest":12483,"DatasetType":"pollen","DatasetID":14792}]},{"SiteNotes":null,"SiteID":9994,"AgeYoungest":14113,"SiteName":"Moose Lake","MaxAge":19800,"LongitudeWest":-123.35217,"MinAge":14113,"AgeOldest":19800,"LongitudeEast":-123.34969,"SiteDescription":"Alpine lake located in the Grand Valley. Surrounding vegetation: Subalpine forest parkland dominated by Abies lasiocarpa. Tsuga heterophylla and Pseudotsuga menziesii reach their upper elevational limit near Moose Lake.","LatitudeNorth":47.88573,"LatitudeSouth":47.88164,"Longitude":-123.35093,"Latitude":47.883685,"Datasets":[{"MaxAge":19800,"DatabaseName":"North American Pollen Database","CollUnitHandle":"MOOSE","CollUnitName":"ML","MinAge":14113,"AgeOldest":22306,"AgeYoungest":13353,"DatasetType":"pollen","DatasetID":14935}]},{"SiteNotes":null,"SiteID":9995,"AgeYoungest":12430,"SiteName":"Martins Lake","MaxAge":13635,"LongitudeWest":-123.53319,"MinAge":12430,"AgeOldest":13635,"LongitudeEast":-123.53199,"SiteDescription":"Martins Lake is a closed basin located on an alpine ridge. Surrounding vegetation: small meadows, scree slopes, and patchy Tsuga mertenisana forest. Phyllodoce empetriformis, Vaccinium deliciosum, Cassiope mertensiana, Carex, Erythronium montanum, and Polygonum bistortoides are common in meadows.","LatitudeNorth":47.7137,"LatitudeSouth":47.71213,"Longitude":-123.53259,"Latitude":47.712915,"Datasets":[{"MaxAge":13635,"DatabaseName":"North American Pollen Database","CollUnitHandle":"MARTINS","CollUnitName":"DM","MinAge":12430,"AgeOldest":null,"AgeYoungest":null,"DatasetType":"pollen","DatasetID":14938}]},{"SiteNotes":null,"SiteID":10061,"AgeYoungest":4124,"SiteName":"Lake Emma","MaxAge":12106,"LongitudeWest":-107.61652,"MinAge":4124,"AgeOldest":12106,"LongitudeEast":-107.61422,"SiteDescription":"Glacial tarn in a south-facing cirque at the head of Eureka Gulch near the headwaterso of the Animas River. On 4 June 1978, it was suddenly and completely drained by the collapse of underground mine workings. Site is above timberline in alpine tundra.","LatitudeNorth":37.90334,"LatitudeSouth":37.90087,"Longitude":-107.61537,"Latitude":37.902105,"Datasets":[{"MaxAge":12106,"DatabaseName":"North American Pollen Database","CollUnitHandle":"EMMASEC1","CollUnitName":"Pollen Section","MinAge":4124,"AgeOldest":13125,"AgeYoungest":2964,"DatasetType":"pollen","DatasetID":15106}]},{"SiteNotes":null,"SiteID":10103,"AgeYoungest":173,"SiteName":"Fort Bragg (core PAW2)","MaxAge":11443,"LongitudeWest":-79.09388,"MinAge":173,"AgeOldest":11443,"LongitudeEast":-79.08573,"SiteDescription":"Peat-filled paleochannel of the Little River. Located in the Salinas Point Terraces Natural Area of the Fort Bragg Military Reservation. Surrounding vegetation: Chamaecyparis thyoides, Nyssa biflora, Acer rubrum. The shrub layer is dense with Lyonia lucida, Clethra alnifolia, Ilex coriaceae, and Smilax laurifolia. The groundcover is dominated by Sphagnum peat mosses.","LatitudeNorth":35.17588,"LatitudeSouth":35.17121,"Longitude":-79.089805,"Latitude":35.173545,"Datasets":[{"MaxAge":11443,"DatabaseName":"North American Pollen Database","CollUnitHandle":"PAW2","CollUnitName":"PAW2","MinAge":173,"AgeOldest":13362,"AgeYoungest":-40,"DatasetType":"pollen","DatasetID":15191}]},{"SiteNotes":null,"SiteID":10106,"AgeYoungest":3882,"SiteName":"South Dansville Buried Peat","MaxAge":12863,"LongitudeWest":-77.6505,"MinAge":3882,"AgeOldest":12863,"LongitudeEast":-77.6315,"SiteDescription":"Wet area in an open field on steep hill. Physiography: Steep hill, drainage into Genesse system. Local vegetation: peat.","LatitudeNorth":42.4984,"LatitudeSouth":42.4853,"Longitude":-77.641,"Latitude":42.49185,"Datasets":[{"MaxAge":12863,"DatabaseName":"North American Pollen Database","CollUnitHandle":"DANSVILL","CollUnitName":null,"MinAge":3882,"AgeOldest":15281,"AgeYoungest":1924,"DatasetType":"pollen","DatasetID":15199}]},{"SiteNotes":null,"SiteID":10107,"AgeYoungest":72,"SiteName":"Lost Park","MaxAge":13459,"LongitudeWest":-105.5577,"MinAge":72,"AgeOldest":13459,"LongitudeEast":-105.5189,"SiteDescription":"Lost Park wet meadow occurs along the South Fork of Lost Creek, immediately northeast of the Tarryall Mountains. Surrounding vegetation: The forest vegetation of the area contains Juniperus communis as an understory shrub. Picea pungens and Pinus contorta grow on a knoll that extends into the valley near the coring site. Pinus contorta, Pinus aristata, and Picea engelmannii all occur on the forested valley slopes flanking Lost Park. Populus tremulouides commonly occurs in dry disturbed areas. The wet meadow vegetation consists of many herbaceous plant taxa such as Clementsia rhodantha, Potentilla, Gentiana calycosa, and members of the Poaceae, Cyperaceae, and Caryophyllaceae families. Occasional Salix shrubs also dot the wet meadow. In dry nonforested areas along the valley floor adjacent to the wet meadow, abundant taxa include Fragaria virginiana, Taraxacum officinale, Aster, Penstemon, Achillea lanulosa, A. frigida, Pentaphylloides floribunda, and members of the Chenopodiaceae and Poaceae families.","LatitudeNorth":39.3043,"LatitudeSouth":39.2855,"Longitude":-105.5383,"Latitude":39.2949,"Datasets":[{"MaxAge":13459,"DatabaseName":"North American Pollen Database","CollUnitHandle":"LOSTPARK","CollUnitName":null,"MinAge":72,"AgeOldest":13935,"AgeYoungest":-41,"DatasetType":"pollen","DatasetID":15201}]},{"SiteNotes":null,"SiteID":10109,"AgeYoungest":919,"SiteName":"Chesapeake Bay (MD99-2207)","MaxAge":19855,"LongitudeWest":-76.2144444444444,"MinAge":919,"AgeOldest":19855,"LongitudeEast":-76.2144444444444,"SiteDescription":"Mainstem of the Chesapeake Bay. Physiography: Atlantic Coastal Plain.","LatitudeNorth":38.0302777777778,"LatitudeSouth":38.0302777777778,"Longitude":-76.214444,"Latitude":38.030278,"Datasets":[{"MaxAge":19855,"DatabaseName":"North American Pollen Database","CollUnitHandle":"CHES2207","CollUnitName":"MD99-2207","MinAge":919,"AgeOldest":24189,"AgeYoungest":744,"DatasetType":"pollen","DatasetID":15205}]},{"SiteNotes":null,"SiteID":10110,"AgeYoungest":55,"SiteName":"Chesapeake Bay (MD99-2208)","MaxAge":5025,"LongitudeWest":-76.4863888888889,"MinAge":55,"AgeOldest":5025,"LongitudeEast":-76.4863888888889,"SiteDescription":"Mainstem of the Chesapeake Bay. Physiography: Atlantic Coastal Plain.","LatitudeNorth":38.5372222222222,"LatitudeSouth":38.5372222222222,"Longitude":-76.486389,"Latitude":38.537222,"Datasets":[{"MaxAge":5025,"DatabaseName":"North American Pollen Database","CollUnitHandle":"CHES2208","CollUnitName":"MD99-2208","MinAge":55,"AgeOldest":5593,"AgeYoungest":-40,"DatasetType":"pollen","DatasetID":15207}]},{"SiteNotes":null,"SiteID":10111,"AgeYoungest":602,"SiteName":"Chesapeake Bay (MD99-2209)","MaxAge":7030,"LongitudeWest":-76.3944444444444,"MinAge":602,"AgeOldest":7030,"LongitudeEast":-76.3944444444444,"SiteDescription":"Mainstem of the Chesapeake Bay. Physiography: Atlantic Coastal Plain.","LatitudeNorth":38.8861111111111,"LatitudeSouth":38.8861111111111,"Longitude":-76.394444,"Latitude":38.886111,"Datasets":[{"MaxAge":7030,"DatabaseName":"North American Pollen Database","CollUnitHandle":"CHES2209","CollUnitName":"MD99-2209","MinAge":602,"AgeOldest":7203,"AgeYoungest":518,"DatasetType":"pollen","DatasetID":15209}]},{"SiteNotes":null,"SiteID":10112,"AgeYoungest":10,"SiteName":"Chesapeake Bay (PTMC3-2)","MaxAge":2177,"LongitudeWest":-76.2197222222222,"MinAge":10,"AgeOldest":2177,"LongitudeEast":-76.2197222222222,"SiteDescription":"Mainstem of the Chesapeake Bay. Physiography: Atlantic Coastal Plain.","LatitudeNorth":38.0266666666667,"LatitudeSouth":38.0266666666667,"Longitude":-76.219722,"Latitude":38.026667,"Datasets":[{"MaxAge":2177,"DatabaseName":"North American Pollen Database","CollUnitHandle":"CHESPTMC","CollUnitName":"PTMC3-2","MinAge":10,"AgeOldest":3395,"AgeYoungest":-33,"DatasetType":"pollen","DatasetID":15211}]},{"SiteNotes":null,"SiteID":10117,"AgeYoungest":218,"SiteName":"Caddo Creek (Core 1)","MaxAge":644,"LongitudeWest":-95.5281,"MinAge":218,"AgeOldest":644,"LongitudeEast":-95.48235,"SiteDescription":"An overbank deposit on a floodplain margin. Surrounding vegetation: Piney-woods mixture bordering a strip of post-oak savanna.","LatitudeNorth":32.04933,"LatitudeSouth":32.03788,"Longitude":-95.505225,"Latitude":32.043605,"Datasets":[{"MaxAge":644,"DatabaseName":"North American Pollen Database","CollUnitHandle":"CADDO1","CollUnitName":"Core 1","MinAge":218,"AgeOldest":750,"AgeYoungest":97,"DatasetType":"pollen","DatasetID":15221}]},{"SiteNotes":null,"SiteID":10118,"AgeYoungest":364,"SiteName":"Caddo Creek (Core 3)","MaxAge":1682,"LongitudeWest":-95.52887,"MinAge":364,"AgeOldest":1682,"LongitudeEast":-95.48355,"SiteDescription":"A floodplain deposit. Surrounding vegetation: Piney-woods mixture bordering a strip of post-oak savanna.","LatitudeNorth":32.04853,"LatitudeSouth":32.0433,"Longitude":-95.50621,"Latitude":32.045915,"Datasets":[{"MaxAge":1682,"DatabaseName":"North American Pollen Database","CollUnitHandle":"CADDO3","CollUnitName":"Core 3","MinAge":364,"AgeOldest":2099,"AgeYoungest":191,"DatasetType":"pollen","DatasetID":15223}]},{"SiteNotes":null,"SiteID":10158,"AgeYoungest":15864,"SiteName":"Devlins Park","MaxAge":15864,"LongitudeWest":-105.56179,"MinAge":15864,"AgeOldest":15864,"LongitudeEast":-105.55196,"SiteDescription":"A small basin on Caribou Creek that is blocked downstream by a moraine. Surrounding vegetation: Slopes near the coring site are covered by lodgepole pine forest with subalpine fir and Engelmann spruce. Quaking aspen and limber pine were also present. The basin itself is dominated by willows, sedges, and grasses.","LatitudeNorth":40.00454,"LatitudeSouth":39.99728,"Longitude":-105.556875,"Latitude":40.00091,"Datasets":[{"MaxAge":15864,"DatabaseName":"North American Pollen Database","CollUnitHandle":"DEVLINS","CollUnitName":null,"MinAge":15864,"AgeOldest":19843,"AgeYoungest":12516,"DatasetType":"pollen","DatasetID":15298}]},{"SiteNotes":null,"SiteID":10172,"AgeYoungest":10295,"SiteName":"Black Gum Swamp","MaxAge":12892,"LongitudeWest":-72.1862,"MinAge":10295,"AgeOldest":12892,"LongitudeEast":-72.1796,"SiteDescription":"Swamp that occupies an irregularly shaped basin that drains to the southwest through an intermittent stream. Surrounding vegetation: Picea rubens, Nyssa sylvatica, and Acer rubrum in the overstory. Ilex, Nemopanthus, Vaccinium, and Viburnum in the understory. Ground layer of Sphagnum, Osmunda, and herbs.","LatitudeNorth":42.539,"LatitudeSouth":42.536,"Longitude":-72.1829,"Latitude":42.5375,"Datasets":[{"MaxAge":12892,"DatabaseName":"North American Pollen Database","CollUnitHandle":"BLACKGMS","CollUnitName":null,"MinAge":10295,"AgeOldest":13622,"AgeYoungest":9267,"DatasetType":"pollen","DatasetID":15327},{"MaxAge":10829,"DatabaseName":"North American Pollen Database","CollUnitHandle":"BLACKGUM","CollUnitName":null,"MinAge":9043,"AgeOldest":11433,"AgeYoungest":8607,"DatasetType":"pollen","DatasetID":15325}]},{"SiteNotes":null,"SiteID":10186,"AgeYoungest":8825,"SiteName":"Balsam Lake","MaxAge":15713,"LongitudeWest":-74.60706,"MinAge":8825,"AgeOldest":15713,"LongitudeEast":-74.60135,"SiteDescription":"Lake occupying a depression. Catskill Mountains. Surrounding vegetation: Forest containing abundant hemlock, yellow birch, beech, and some black cherry.","LatitudeNorth":42.03221,"LatitudeSouth":42.02536,"Longitude":-74.604205,"Latitude":42.028785,"Datasets":[{"MaxAge":15713,"DatabaseName":"North American Pollen Database","CollUnitHandle":"BALSAM","CollUnitName":null,"MinAge":8825,"AgeOldest":21036,"AgeYoungest":7818,"DatasetType":"pollen","DatasetID":15350}]},{"SiteNotes":null,"SiteID":10195,"AgeYoungest":3382,"SiteName":"Blue Lake Wetlands","MaxAge":19692,"LongitudeWest":-114.04118,"MinAge":3382,"AgeOldest":19692,"LongitudeEast":-114.02161,"SiteDescription":"The Blue Lake wetland system is a large geothermal spring-fed system, ranking among the largest extant wetland habitats in the region. Surrounding vegetation: Dense marsh vegetation dominated by several species of bulrush (Schoenoplectus), sedges (Carex sp.), and spikerush (Eleocharis rostellata). Vegetation at the site consists of spongy peat currently vegetated in saltgrass.","LatitudeNorth":40.50381,"LatitudeSouth":40.49611,"Longitude":-114.031395,"Latitude":40.49996,"Datasets":[{"MaxAge":19692,"DatabaseName":"North American Pollen Database","CollUnitHandle":"BLUEBONN","CollUnitName":"BLO4-4","MinAge":3382,"AgeOldest":20776,"AgeYoungest":2998,"DatasetType":"pollen","DatasetID":15368}]},