{"name":"Search 5","symbol":{"color":"8b0000","size":"Medium","shape":"Circle"},"sites":[{"SiteNotes":null,"SiteID":1077,"AgeYoungest":8989,"SiteName":"Horseshoe Lake","MaxAge":15388,"LongitudeWest":-93.047778,"MinAge":8989,"AgeOldest":15388,"LongitudeEast":-93.047778,"SiteDescription":"Lake in ice-block depression. Physiography: Anoka Sand Plain. Surrounding vegetation: Quercus ellipsoididalis, Q. macrocarpa.","LatitudeNorth":45.460278,"LatitudeSouth":45.460278,"Longitude":-93.047778,"Latitude":45.460278,"Datasets":[{"MaxAge":15388,"DatabaseName":"North American Pollen Database","CollUnitHandle":"HORSHOHA","CollUnitName":"Core HA","MinAge":8989,"AgeOldest":null,"AgeYoungest":null,"DatasetType":"pollen","DatasetID":1110}]},{"SiteNotes":null,"SiteID":1510,"AgeYoungest":164,"SiteName":"Kotiranta Lake","MaxAge":18252,"LongitudeWest":-92.62,"MinAge":164,"AgeOldest":18252,"LongitudeEast":-92.62,"SiteDescription":"Lake with floating sedge mat rim. Physiography: Sawyer outwash plain. Surrounding vegetation: Picea mariana.","LatitudeNorth":46.72,"LatitudeSouth":46.72,"Longitude":-92.62,"Latitude":46.72,"Datasets":[{"MaxAge":18252,"DatabaseName":"North American Pollen Database","CollUnitHandle":"KOTIRANT","CollUnitName":null,"MinAge":164,"AgeOldest":null,"AgeYoungest":null,"DatasetType":"pollen","DatasetID":1548}]},{"SiteNotes":null,"SiteID":1526,"AgeYoungest":9431,"SiteName":"Kylen Lake","MaxAge":19064,"LongitudeWest":-91.8,"MinAge":9431,"AgeOldest":19064,"LongitudeEast":-91.8,"SiteDescription":null,"LatitudeNorth":47.35,"LatitudeSouth":47.35,"Longitude":-91.8,"Latitude":47.35,"Datasets":[{"MaxAge":19064,"DatabaseName":"North American Pollen Database","CollUnitHandle":"KYLENLK","CollUnitName":null,"MinAge":9431,"AgeOldest":null,"AgeYoungest":null,"DatasetType":"pollen","DatasetID":1564}]},{"SiteNotes":null,"SiteID":1544,"AgeYoungest":5589,"SiteName":"Lake Ann","MaxAge":15808,"LongitudeWest":-93.6875,"MinAge":5589,"AgeOldest":15808,"LongitudeEast":-93.6875,"SiteDescription":"Lake in parabolic dune field. Physiography: Anoka Sand Plain. Surrounding vegetation: agriculture/pines/hardwoods.","LatitudeNorth":45.425,"LatitudeSouth":45.425,"Longitude":-93.6875,"Latitude":45.425,"Datasets":[{"MaxAge":15808,"DatabaseName":"North American Pollen Database","CollUnitHandle":"LAKEANNH","CollUnitName":"core H","MinAge":5589,"AgeOldest":null,"AgeYoungest":null,"DatasetType":"pollen","DatasetID":3469}]},{"SiteNotes":null,"SiteID":1586,"AgeYoungest":0,"SiteName":"Lily Lake (US:Minnesota)","MaxAge":17839,"LongitudeWest":-92.825,"MinAge":0,"AgeOldest":17839,"LongitudeEast":-92.825,"SiteDescription":null,"LatitudeNorth":45.05,"LatitudeSouth":45.05,"Longitude":-92.825,"Latitude":45.05,"Datasets":[{"MaxAge":17839,"DatabaseName":"North American Pollen Database","CollUnitHandle":"LILYLAKE","CollUnitName":null,"MinAge":0,"AgeOldest":null,"AgeYoungest":null,"DatasetType":"pollen","DatasetID":1633}]},{"SiteNotes":null,"SiteID":2849,"AgeYoungest":10,"SiteName":"Weber Lake","MaxAge":18446,"LongitudeWest":-91.66,"MinAge":10,"AgeOldest":18446,"LongitudeEast":-91.66,"SiteDescription":null,"LatitudeNorth":47.471667,"LatitudeSouth":47.471667,"Longitude":-91.66,"Latitude":47.471667,"Datasets":[{"MaxAge":18446,"DatabaseName":"North American Pollen Database","CollUnitHandle":"WEBERLK","CollUnitName":"cores S:1+C:1 COHMAP","MinAge":10,"AgeOldest":null,"AgeYoungest":null,"DatasetType":"pollen","DatasetID":3837}]},{"SiteNotes":null,"SiteID":2855,"AgeYoungest":8913,"SiteName":"White Lily Lake","MaxAge":19337,"LongitudeWest":-93.102778,"MinAge":8913,"AgeOldest":19337,"LongitudeEast":-93.102778,"SiteDescription":"Ice block depression, kettle lake. Physiography: McGrath Till Plain, gently rolling.","LatitudeNorth":46.086111,"LatitudeSouth":46.086111,"Longitude":-93.102778,"Latitude":46.086111,"Datasets":[{"MaxAge":19337,"DatabaseName":"North American Pollen Database","CollUnitHandle":"WHITLILY","CollUnitName":null,"MinAge":8913,"AgeOldest":null,"AgeYoungest":null,"DatasetType":"pollen","DatasetID":3841}]},{"SiteNotes":null,"SiteID":2932,"AgeYoungest":10183,"SiteName":"Wolf Creek","MaxAge":24679,"LongitudeWest":-94.116667,"MinAge":10183,"AgeOldest":24679,"LongitudeEast":-94.116667,"SiteDescription":null,"LatitudeNorth":46.116667,"LatitudeSouth":46.116667,"Longitude":-94.116667,"Latitude":46.116667,"Datasets":[{"MaxAge":24679,"DatabaseName":"North American Pollen Database","CollUnitHandle":"WOLFCRK","CollUnitName":null,"MinAge":10183,"AgeOldest":null,"AgeYoungest":null,"DatasetType":"pollen","DatasetID":3029}]},{"SiteNotes":"Public Land Survey coordinates of the site are NE 1/4, NW 1/4, SW 1/4, Sec. 2, T. 114  N, R. 26 W.","SiteID":9860,"AgeYoungest":12483,"SiteName":"Norwood","MaxAge":15388,"LongitudeWest":-93.926793,"MinAge":12483,"AgeOldest":15388,"LongitudeEast":-93.926793,"SiteDescription":"The site is located on the North bank of a drainage ditch leading to Bevens Creek 6.6 km south of Norwood, Minnesota","LatitudeNorth":44.709298,"LatitudeSouth":44.709298,"Longitude":-93.926793,"Latitude":44.709298,"Datasets":[{"MaxAge":15388,"DatabaseName":"North American Pollen Database","CollUnitHandle":"NORPOL","CollUnitName":null,"MinAge":12483,"AgeOldest":15928,"AgeYoungest":11612,"DatasetType":"pollen","DatasetID":19316}]},{"SiteNotes":null,"SiteID":11855,"AgeYoungest":2441,"SiteName":"Little Shingobee Lake","MaxAge":12831,"LongitudeWest":-94.69653,"MinAge":2441,"AgeOldest":12831,"LongitudeEast":-94.69262,"SiteDescription":"Little Shingobee Lake occupies a basin on the floor of glacial Lake Willobee. ","LatitudeNorth":46.99662,"LatitudeSouth":46.99141,"Longitude":-94.694575,"Latitude":46.994015,"Datasets":[{"MaxAge":12831,"DatabaseName":"North American Pollen Database","CollUnitHandle":"LITSHING","CollUnitName":"LSL-B","MinAge":2441,"AgeOldest":15586,"AgeYoungest":1835,"DatasetType":"pollen","DatasetID":17947}]},{"SiteNotes":null,"SiteID":13287,"AgeYoungest":10542,"SiteName":"Madelia","MaxAge":16496,"LongitudeWest":-94.4166666666667,"MinAge":10542,"AgeOldest":16496,"LongitudeEast":-94.4166666666667,"SiteDescription":"Drained wetland in a small depression in ground moraine.","LatitudeNorth":44.0833333333333,"LatitudeSouth":44.0833333333333,"Longitude":-94.416667,"Latitude":44.083333,"Datasets":[{"MaxAge":16496,"DatabaseName":"North American Pollen Database","CollUnitHandle":"MADELIA","CollUnitName":null,"MinAge":10542,"AgeOldest":17908,"AgeYoungest":9530,"DatasetType":"pollen","DatasetID":19812}]}],"numDatasets":11,"numSites":11,"id":4,"order":1}